"NomEntreprise","Adresse","Municipalite","CodePostal","Territoire","SiteWeb","NEQ","CategorieMembre","Type","SecteurActivite","lat","long"
"L'orchestre symphonique de Trois-Rivières inc.","100-190 RUE Bonaventure","Trois-Rivières","G9A5K8","Trois-Rivières","ostr.ca",1142934315,NA,NA,NA,46.344466,-72.54447
"Club de golf le St-Rémi","660 ch. Saint-Charles","Lac-aux-Sables","G0X1M0","Mékinac","www.golfstremi.com/parcours/tawachiche",NA,NA,NA,NA,46.855205,-72.447788
"Coopérative d'habitation Place Soleil de Trois-Rivières","17-3900 rue Louis-Pinard","Trois-Rivières","G8Y4L9","Trois-Rivières",NA,NA,NA,NA,NA,46.350048,-72.589943
"Maison Origami, coopérative de solidarité","3845 rue de Turenne","Trois-Rivières","G8Y6K6","Trois-Rivières",NA,NA,NA,NA,NA,46.342008,-72.61627
"Club Anowepo","42 rue Radisson","La Tuque","G9X3M1","La Tuque","www.clubanowepo.ca",1148207609,NA,NA,NA,47.430641,-72.793625
"Recycle 3R Mauricie","1090 rue De La Vérendrye","Trois-Rivières","G9A2S8","Trois-Rivières",NA,1170555792,NA,NA,NA,46.339918,-72.555037
"Coopérative de solidarité Cent-Arts","1525 rue Laviolette","Trois-Rivières","G9A1W5","Trois-Rivières","cent-arts.ca",1160439585,NA,NA,NA,46.352942,-72.550853
"Association coopérative d'économie familiale de la Mauricie (ACEF)","274 rue Bureau","Trois-Rivières","G9A2M7","Trois-Rivières","www.v3r.net/activites-et-loisirs/repertoire-des-organismes/association-cooperative-deconomie-familiale-de-la-mauricie-acef",1142205971,NA,NA,NA,46.339165,-72.544515
"Résidence Christ-Roi","1190 Rue Notre Dame","Shawinigan","G9N3S4","Shawinigan","residencechristroi.ca",1148828750,NA,NA,NA,46.559267,-72.738699
"Centre Landry","1954 rue Saint-François-d'Assise","Trois-Rivières","G9A1N5","Trois-Rivières","centrelandry.com",NA,NA,NA,NA,46.357316,-72.551635
"Musée Pierre Boucher","858 rue Laviolette","Trois-Rivières","G9A5J1","Trois-Rivières","www.museepierreboucher.com",1142324814,NA,NA,NA,46.349071,-72.544762
"Taxis coop de la Mauricie 1992","3055 boulevard des Forges","Trois-Rivières","G8Z1V4","Trois-Rivières","taxiscoopmauricie.com",1144338176,NA,NA,NA,46.348136,-72.569759
"Groupe RCM inc.","2390 RUE Louis-Allyson","Trois-Rivières","G8Z4P3","Trois-Rivières","www.groupercm.com",1142961417,NA,NA,NA,46.338374,-72.575877
"Sanatorium historique Lac Édouard","400 RUE Principale","Lac-Édouard","G0X3N0","La Tuque","lesan.org",1169780401,NA,NA,NA,47.653509,-72.282506
"Hébergement adapté et supervisé des Chenaux","44 rang de la Rivière-à-Veillet","Sainte-Geneviève-de-Batiscan","G0X2R0","Des Chenaux",NA,1172507973,NA,NA,NA,46.564545,-72.341041
"Coopérative d'utilisation de machinerie agricole Des Rivières","2411 ch. Saint-Thomas","Sainte-Thècle","G0X3G0","Mékinac","www.cumacanada.ca",1144512606,NA,NA,NA,46.804327,-72.465105
"CPE La Maisonnée","108-1800 rue Saint-Paul","Trois-Rivières","G9A1J7","Trois-Rivières",NA,NA,NA,NA,NA,46.352001,-72.542584
"Promutuel Portneuf-Champlain","439 Rue Barkoff","Trois-Rivières","G8T2A5","Trois-Rivières","www.promutuelassurance.ca/fr/portneuf-champlain",1179385829,NA,NA,NA,46.374372,-72.553577
"La société Saint-Vincent de Paul de Trois-Rivières","2580 rue Royale","Trois-Rivières","G9A4L5","Trois-Rivières","www.ssvp-quebec.ca/accueil",1143525286,NA,NA,NA,46.334293,-72.549379
"Coopérative de solidarité santé Les Grès","202-190 rue Saint-Honoré","Saint-Étienne-des-Grès","G0X2P0","Maskinongé","www.cliniquemedicalelesgres.ca",1143026178,NA,NA,NA,46.442927,-72.770441
"Centre d'escalade La Tuque","380 rue Jacques-Buteux","La Tuque","G9X2C6","La Tuque","escaladelatuque.wixsite.com",NA,NA,NA,NA,47.444868,-72.773964
"Radio Shawinigan Inc.","636 5e rue de la Pointe","Shawinigan","G9N8N9","Shawinigan","shawi.countrypop.ca",1162336854,NA,NA,NA,46.540508,-72.749613
"Festival international de Danse Encore","230-1180 RUE Royale","Trois-Rivières","G9A4J1","Trois-Rivières","dansencore.ca",1145440229,NA,NA,NA,46.339595,-72.545861
"Coop de solidarité Coasis","100-7B ch. Masse","Trois-Rivières","G8W1H2","Trois-Rivières",NA,1176409085,NA,NA,NA,46.385461,-72.574385
"La Fenêtre centre d'immersion aux arts","108 boul. Sainte-Madeleine","Trois-Rivières","G8T3L3","Trois-Rivières","lafenetre3r.org",1147940937,NA,NA,NA,46.364237,-72.511535
"Coopérative universitaire de Trois-Rivières","3351 boul. des Forges","Trois-Rivières","G8Z4M3","Trois-Rivières","cooputr.qc.ca",1141223231,NA,NA,NA,46.348038,-72.57778
"Corporation TGV Net Mauricie","1250 avenue de la Station","Shawinigan","G9N8K9","Shawinigan","www.tgvnet.ca",NA,NA,NA,NA,46.545617,-72.749825
"Au grenier du sport Grand-Mère","1580 10e Avenue","Shawinigan","G9T1V4","Shawinigan",NA,NA,NA,NA,NA,46.60829,-72.70817
"Coopérative funéraire de la Mauricie","2280 105e Avenue","Shawinigan","G9P1P1","Shawinigan","www.cooperativefunerairemauricie.com",NA,NA,NA,NA,46.517831,-72.742207
"Coopérative d'habitation ""La Rose des Vents"" de Shawinigan-Sud","95 Rue Pruneau","Shawinigan","G9P4V8","Shawinigan",NA,1144310977,NA,NA,NA,46.525428,-72.734388
"Atelier Chocolaté, une division de l'Atelier des Vieilles Forges","802 Pl. Boland","Trois-Rivières","G8Z4H2","Trois-Rivières",NA,NA,NA,NA,NA,46.339383,-72.580922
"Les amis du hameau de la rivière St-Maurice Maikan","2206 boul. des Chenaux","Trois-Rivières","G9A1A1","Trois-Rivières",NA,1165515009,NA,NA,NA,46.363921,-72.552661
"Les trouvailles de Mékinac","752 boul. Saint-Joseph","Saint-Tite","G0X3H0","Mékinac","www.cabmekinac.org",NA,NA,NA,NA,46.726012,-72.55815
"Club Moose-Sipi inc.","1151 Grand Rang","Saint-Tite","G0X3H0","Mékinac",NA,1143274810,NA,NA,NA,46.712115,-72.54978
"CPE Le petit Champlain","15 rue Massicotte","Champlain","G0X1C0","Des Chenaux",NA,NA,NA,NA,NA,46.443081,-72.346932
"Corporation transport adapté Mékinac ( C.T.A.M.)","206-301 rue Saint-Jacques","Sainte-Thècle","G0X3G0","Mékinac","www.ctamekinac.qc.ca",1142135285,NA,NA,NA,46.818583,-72.504294
"Centre d'entrepreneuriat Shawinigan, coopérative de solidarité","1250 ave de la Station","Shawinigan","G9N8K9","Shawinigan","ceads.ca",1167485235,NA,NA,NA,46.545617,-72.749825
"Salon du livre de Trois-Rivières","100-60 RUE St-Antoine","Trois-Rivières","G9A0C4","Trois-Rivières","www.sltr.qc.ca",NA,NA,NA,NA,46.341333,-72.541931
"Coopérative d'habitation Ste-Famille du Cap-de-la-Madeleine","60 Rue Perreault","Trois-Rivières","G8T9S2","Trois-Rivières",NA,1161931523,NA,NA,NA,46.362089,-72.527707
"L'évasion service de gardiennage et de répit","154 rue Toupin","Trois-Rivières","G8T3Z9","Trois-Rivières","www.levasion.org/index2.html",1148142244,NA,NA,NA,46.364518,-72.503607
"CPE Le manège des Tout-petits inc.","2090 10e Rue","Shawinigan","G9T6V8","Shawinigan","www.monsitew.com/Site/cpemanegedestoutpetits/ZonePublic/Accueil/NousJoindre",NA,NA,NA,NA,46.618352,-72.711242
"Résidence Le Jardin","897 rue St-Pierre","Trois-Rivières","G9A4W5","Trois-Rivières","résidencelejardin.com",NA,NA,NA,NA,46.343491,-72.539014
"CPE Entre deux nuages","928 rue Guilbert","Trois-Rivières","G8T5V7","Trois-Rivières",NA,NA,NA,NA,NA,46.39127,-72.552434
"Ciné-Campus","858 rue Laviolette","Trois-Rivières","G9A5J1","Trois-Rivières","www.cinecampustr.com",NA,NA,NA,NA,46.349071,-72.544762
"Coopérative de solidarité Le Nouvelliste","1920 rue Bellefeuille","Trois-Rivières","G9A3Y2","Trois-Rivières","www.lenouvelliste.ca",NA,NA,NA,NA,46.340864,-72.552115
"L'interville coop de solidarité en soins et services","104-3550 rue de Cherbourg","Trois-Rivières","G8Y6S6","Trois-Rivières","www.interville.ca",1146990131,NA,NA,NA,48.90866,-66.99887
"Coop Nitaskinan (Bureau et Espace culturel Onikam)","001-500 avenue Broadway","Shawinigan","G9N1M3","Shawinigan","www.coopnitaskinan.com",NA,NA,NA,NA,46.54058,-72.743967
"Club Ingall inc.","301 rue Rocheleau","Hérouxville","G0X1J0","Mékinac",NA,1143806322,NA,NA,NA,46.675295,-72.620444
"CPE Le Petit navire inc.","2770 rue Forest","Trois-Rivières","G8Z4K8","Trois-Rivières","www.facebook.com/profile.php?id=100057401750203",1142221861,NA,NA,NA,46.331056,-72.589409
"Formation accès intégration travail (fait) inc.","1110 boul. Thibeau","Trois-Rivières","G8T7B2","Trois-Rivières","fait3r.org",1142108548,NA,NA,NA,46.394028,-72.559487
"Caravane Philanthrope","2700 Laviolette","Trois-Rivières","G8Z1E5","Trois-Rivières","caravanephilanthrope.com/a-propos",1174898917,NA,NA,NA,46.35785,-72.562871
"Association coopérative d'habitation étudiante des Forges","1550 rue du Père-Marquette","Trois-Rivières","G8Z4G5","Trois-Rivières",NA,1146144416,NA,NA,NA,46.347237,-72.573312
"Coop de solidarité de Lac-Édouard","148 RUE Principale","Lac-Édouard","G0X3N0","La Tuque",NA,1166217175,NA,NA,NA,47.661911,-72.272016
"Coopérative de travail Inter-Nations","22 RUE AMISKW","Obedjiwan","G0W3B0","La Tuque",NA,1165868846,NA,NA,NA,48.657703,-74.942811
"Le Costumier Chavigny","365 rue Chavigny","Trois-Rivières","G9B1A7","Trois-Rivières",NA,1171662365,NA,NA,NA,46.312422,-72.581413
"Corporation de Transports collectifs de la MRC de Maskinongé","130-80 rue St-Jacques","Louiseville","J5V1C2","Maskinongé","www.ctcmaskinonge.org",NA,NA,NA,NA,46.258145,-72.941622
"Les concerts d'orgue pro-organo (Mauricie) inc.","3690 boul. des Chenaux","Trois-Rivières","G8Y1A4","Trois-Rivières","proorgano.ca",1144668325,NA,NA,NA,46.364652,-72.568534
"Corporation du pont Rivière-aux-rats","375 rue Saint-Joseph","La Tuque","G9X1L5","La Tuque",NA,1141091737,NA,NA,NA,47.440711,-72.781489
"Association sportive du Gros Brochet inc.","582 4e rue de la Pointe","Shawinigan","G9N1G8","Shawinigan",NA,1144192540,NA,NA,NA,46.539781,-72.749201
"La maitrise du cap inc.","775 rue Berlinguet","Trois-Rivières","G8T2H1","Trois-Rivières","maitriseducap.qc.ca/v2",1160977147,NA,NA,NA,46.378901,-72.536529
"Club de chasse & pêche Pandora inc.","4030 rue de l'Hôtel-de-Ville","Notre-Dame-du-Mont-Carmel","G0X3J0","Des Chenaux",NA,1143053644,NA,NA,NA,46.474375,-72.67906
"L'association de chasse et de pêche de la Mauricie inc.","4640 rue De Carufel","Notre-Dame-du-Mont-Carmel","G0X3J0","Des Chenaux",NA,1142302752,NA,NA,NA,46.490831,-72.709965
"Trois-Rivières en blues inc.","100 AVE Des Draveurs","Trois-Rivières","G9A5H3","Trois-Rivières","www.3renblues.com",1165720997,NA,NA,NA,46.34696,-72.53184
"Compagnie des cimetières Notre-Dame-du-Cap","1441 rue Notre-Dame E","Trois-Rivières","G8T4J9","Trois-Rivières","cimetieresnotredameducap.com",1171994917,NA,NA,NA,46.381908,-72.485277
"Initiatives 1-2-3-4 (La petite place des arts)","1781 CH. Principal","Saint-Mathieu-du-Parc","G0X1N0","Maskinongé",NA,NA,NA,NA,NA,46.572696,-72.922751
"Maison de répit-ADI","2153 Gignac","Shawinigan","G9N3X3","Shawinigan","adi-mauricie.ca",NA,NA,NA,NA,46.562934,-72.747211
"Atelier Action Jeunesse TR inc.","3275 rue Girard","Trois-Rivières","G8Z2M5","Trois-Rivières","www.atelieraction.org",NA,NA,NA,NA,46.341953,-72.575155
"Collège Laflèche","1687 boul. du Carmel","Trois-Rivières","G8Z3R8","Trois-Rivières","www.clafleche.qc.ca",1143449354,NA,NA,NA,46.356327,-72.561886
"Coopérative de solidarité agroalimentaire régionale de la MRC de Maskinongé","366 rue Sainte-Anne","Yamachiche","G0X3L0","Maskinongé",NA,1167919357,NA,NA,NA,46.280036,-72.835343
"Coopérative d'habitation Le Domaine Champlain de St-Georges","670 208e Avenue","Shawinigan","G9T6X9","Shawinigan",NA,1147547112,NA,NA,NA,46.625186,-72.653765
"Association nature inc.","590 ch. Saint-Joseph","Trois-Rives","G0X2C0","Mékinac",NA,1141302167,NA,NA,NA,46.919726,-72.693001
"Coopérative de solidarité hébergement de St-Rémi du lac-aux-Sables","386 rue Lavallée","Lac-aux-Sables","G0X1M0","Mékinac",NA,NA,NA,NA,NA,46.860572,-72.400641
"CPE-BC Flocons de rêve","1875 boul. Notre-Dame","Saint-Maurice","G0X2X0","Des Chenaux","www.floconsdereve.com",NA,NA,NA,NA,46.47698,-72.544909
"Coopérative d'habitation du fleuve de Trois-Rivières-Ouest","9-130 RUE Sirois","Trois-Rivières","G9A2X6","Trois-Rivières",NA,NA,NA,NA,NA,46.323601,-72.561743
"Cuisine Coopérative de Solidarité - Mauricie","2182 rue Saint-Philippe","Trois-Rivières","G9A4V7","Trois-Rivières",NA,NA,NA,NA,NA,46.336035,-72.547152
"Immeuble multiservice Des Chenaux","44 rang de la Rivière-à-Veillet","Sainte-Geneviève-de-Batiscan","G0X2R0","Des Chenaux","cdcdeschenaux.ca/organismes",1160796547,NA,NA,NA,46.564545,-72.341041
"Point de Rue","337 rue Laurier","Trois-Rivières","G9A2R4","Trois-Rivières","pointderue.com",NA,NA,NA,NA,46.337485,-72.546068
"Caisse Desjardins de Mékinac- Des-Chenaux","400 rue Notre-Dame","Saint-Tite","G0X3H0","Mékinac","www.desjardins.com/votre-caisse/index.jsp?transit=81510081",1172425069,NA,NA,NA,46.728745,-72.566007
"Le club Jockey du Québec","1850 boul. des Forges","Trois-Rivières","G8Z0A2","Trois-Rivières","hippodrome3r.ca",1165943953,NA,NA,NA,46.34544,-72.559496
"Coopérative d'électricité L.T.M","5270 rue Loiselle","Trois-Rivières","G8Y6M5","Trois-Rivières","cdltm.org",1165336703,NA,NA,NA,46.350454,-72.609012
"Coopérative le voisinage du Bout du Monde","3501 ch. des Trembles","Saint-Paulin","J0K3G0","Maskinongé","baluchon.com/coop-le-voisinage-du-bout-du-monde",NA,NA,NA,NA,46.451357,-73.000846
"Les nouveaux compagnons inc.","1425 PLACE de l'Hôtel-de-ville","Trois-Rivières","G9A5H3","Trois-Rivières","tnc.quebec",1145629672,NA,NA,NA,46.342716,-72.543163
"Autonomie Jeunesse inc.","3425 rue De Courval","Trois-Rivières","G8Z1S8","Trois-Rivières","www.autonomiejeunesse.com",1161402459,NA,NA,NA,46.353661,-72.572714
"CPE le Pipandor","90 119E RUE","Shawinigan","G9P4E6","Shawinigan","cpelepipandor.com",NA,NA,NA,NA,46.523296,-72.744082
"Coopérative de solidarité les Petits Bâtisseurs","1 RUE des Cerisiers","Maskinongé","J0K1N0","Maskinongé",NA,1168773860,NA,NA,NA,46.226399,-73.010889
"Coopérative des producteurs de boeuf de la Mauricie","420 rang Saint-Joseph","Saint-Adelphe","G0X2G0","Mékinac",NA,NA,NA,NA,NA,46.754365,-72.393708
"Coopérative des travailleurs de Savik Super-Chrome","2875 rue de l'Industrie","Trois-Rivières","G8Z3X9","Trois-Rivières","www.savik.com",NA,NA,NA,NA,46.33527,-72.587594
"Coopérative de solidarité de services à domicile Haute-Mauricie","290 rue St-Joseph","La Tuque","G9X3Z8","La Tuque",NA,1147111570,NA,NA,NA,47.441637,-72.785585
"Coopérative Pompon laine café","667 rue Bonaventure","Trois-Rivières","G9A2B9","Trois-Rivières","pomponlainecafe.com",1170877253,NA,NA,NA,46.34481,-72.546899
"CPE Les soleils de Mékinac","2 rue Saint-Gabriel","Saint-Tite","G0X3H0","Mékinac","www.monsitew.com/Site/cpelessoleilsdemekinac/ZonePublic/Accueil/LaUne",NA,NA,NA,NA,46.721513,-72.571433
"Maison Carignan inc.","7515 boul. Parent","Trois-Rivières","G9C0M5","Trois-Rivières","www.maisoncarignan.qc.ca",1142381897,NA,NA,NA,46.363228,-72.630476
"Club de golf et de curling La Tuque (2008) inc.","35 rue Beaumont","La Tuque","G9X3G8","La Tuque","golfcurlinglatuque.com",NA,NA,NA,NA,47.434867,-72.791185
"Coop Solidarité Santé Pointe-du-Lac","10300 ch. Ste-Marguerite 2e étage succ. A","Trois-Rivières","G9B7Y6","Trois-Rivières","www.coopsantepdl.ca",NA,NA,NA,NA,46.293089,-72.669399
"Centre loisir Multi-plus","3730 rue Jacques-De Labadie","Trois-Rivières","G8Y5K7","Trois-Rivières","multi-plus.ca",1144348118,NA,NA,NA,46.354877,-72.578912
"Friperie Pointe du Lac","10607 ch. Sainte-Marguerite","Trois-Rivières","G9B6N6","Trois-Rivières","www.facebook.com/Friperie-Pointe-du-Lac-organisme-sans-but-lucratif-105998170942642",1174815515,NA,NA,NA,46.288876,-72.674671
"Coopérative de solidarité des auteurs de jeux d'édition","1275-03 rue Sainte-Julie","Trois-Rivières","G9A1Y7","Trois-Rivières","www.cajeclub.ca",1174609900,NA,NA,NA,46.349281,-72.54774
"Le Sabord, revue culturelle","154 rue Radisson","Trois-Rivières","G9A2C3","Trois-Rivières","www.lesabord.qc.ca",1145593118,NA,NA,NA,46.342845,-72.540906
"Coopérative forestière du Haut St-Maurice","50 rue Bostonnais","La Tuque","G9X2E8","La Tuque","cfhsm.ca",1144262491,NA,NA,NA,47.455036,-72.777461
"Le Gyroscope du bassin de Maskinongé","393 av. Saint-Laurent","Louiseville","J5V1K4","Maskinongé","legyroscope.org",1141800301,NA,NA,NA,46.255445,-72.947552
"Aide Chez Soi de l’Énergie","525 5e rue de la Pointe","Shawinigan","G9N1E7","Shawinigan","aideenergie.ca",1147621073,NA,NA,NA,46.540332,-72.748716
"Coopérative de solidarité santé de Ste-Thècle","115 rue Lacordaire","Sainte-Thècle","G0X3G0","Mékinac","gmfvb.ca/cooperative-solidarite-sante-de-sainte-thecle",1161255329,NA,NA,NA,46.817934,-72.50568
"Centre multiservices communautaires","431 ch. des Frênes","Shawinigan","G9R1P5","Shawinigan",NA,NA,NA,NA,NA,46.600669,-72.812907
"Cohabitat Mont Otis","100 rang du Soleil","Notre-Dame-de-Montauban","G0X1W0","Mékinac","cohabitatmontotis.org/heberg.shtml",1176453950,NA,NA,NA,46.876407,-72.30966
"Groupe Voix de femmes - Maison la Tradition","1210 Chemin Principal","Saint-Mathieu-du-Parc","G0X1N0","Maskinongé",NA,NA,NA,NA,NA,46.602149,-72.869765
"Coop de Solidarité de Mékinac","590 chemin St-Joseph","Trois-Rives","G0X2C0","Mékinac",NA,NA,NA,NA,NA,46.919726,-72.693001
"Coop de solidarité santé de Pointe-du-Lac","10300 CH. Ste-Marguerite APP: Ét. 2","Trois-Rivières","G9B6M4","Trois-Rivières","www.coopsantepdl.ca/accueil/bienvenue",1163501860,NA,NA,NA,46.293089,-72.669399
"Service de secrétariat communautaire Des Chenaux","44 rang de la Rivière-à-Veillet","Sainte-Geneviève-de-Batiscan","G0X2R0","Des Chenaux","cdcdeschenaux.ca/organismes",1161673273,NA,NA,NA,46.564545,-72.341041
"Centre Ressources Naissance","690 boul. Des Récollets","Trois-Rivières","G8Z3V9","Trois-Rivières","www.ressourcesnaissance.ca",1145680147,NA,NA,NA,46.361643,-72.568398
"Coopérative de solidarité Villa Des Sablois","800 rue Saint-Alphonse","Lac-aux-Sables","G0X1M0","Mékinac",NA,1172402068,NA,NA,NA,46.858882,-72.40067
"CPE La tourelle de l'énergie","1452 rue Gigaire","Shawinigan","G9N3W4","Shawinigan","cpetourelleenergie.ca",NA,NA,NA,NA,46.560211,-72.741242
"Caisse Populaire Desjardins de St-Alexis-Des-Monts","41 Rue Richard","Saint-Alexis-des-Monts","J0K1V0","Maskinongé",NA,NA,NA,NA,NA,46.461978,-73.141445
"Gestion Phénix","627 rue Principale","Saint-Étienne-des-Grès","G0X2P0","Maskinongé",NA,1174036039,NA,NA,NA,46.428126,-72.756206
"Coopérative forestière du bas St-Maurice","1780A boul. Trudel E","Saint-Boniface","G0X2L0","Maskinongé","www.cfbsm.com",1145028693,NA,NA,NA,46.524524,-72.809891
"Coopérative de travailleurs actionnaire de MESAR","4500 RUE Charles-Malhiot","Trois-Rivières","G9B0V4","Trois-Rivières","mesar.qc.ca",1161921029,NA,NA,NA,46.340541,-72.634667
"Coop de Production de Systèmes Électroniques et Informatiques du Québec (Celibec)","3550 boul. Gene-H Kruger Bureau #200","Trois-Rivières","G9A4M3","Trois-Rivières","www.celibec.com",NA,NA,NA,NA,NA,NA
"Les services de garde Gribouillis","700 rue Notre-Dame S","Louiseville","J5V1Y9","Maskinongé","gw.micro-acces.com/gribouillis/Publique/Accueil.aspx",1143868017,NA,NA,NA,46.246842,-72.930387
"Gym Centre-ville coop de solidarité","188 rue Radisson","Trois-Rivières","G9A2C3","Trois-Rivières",NA,NA,NA,NA,NA,46.342953,-72.541292
"Club de pêche et de chasse de Trois-Rivières","2675 BOUL. DU CARMEL","Trois-Rivières","G8Z3S5","Trois-Rivières",NA,1142414557,NA,NA,NA,46.361654,-72.562387
"CPE Jean-Noël Lapin","700 RUE du Marthelinois","Trois-Rivières","G8V1S9","Trois-Rivières","gw.micro-acces.com/cpejeannoellapin/Publique/Accueil.aspx",NA,NA,NA,NA,46.378649,-72.496715
"Coopérative d'habitation de la Bonaventure de Trois-Rivières","692 rue Bonaventure","Trois-Rivières","G9A2C1","Trois-Rivières",NA,1144741718,NA,NA,NA,46.345314,-72.547296
"Maison de la Madone","10 rue Denis-Caron","Trois-Rivières","G8T3W9","Trois-Rivières","www.maisonmadone.com",1144195949,NA,NA,NA,46.369129,-72.501001
"CPE Le petit Forgeron inc.","990 place Boland","Trois-Rivières","G8Z4H2","Trois-Rivières","www.monsitew.com/Site/cpelepetitforgeron/zonepublic/section/menu/568",NA,NA,NA,NA,46.340497,-72.580732
"CPE Premier pas de La Tuque","350 rue Brown","La Tuque","G9X2W4","La Tuque","www.cpepremierpas.com",1164142102,NA,NA,NA,47.447422,-72.781875
"Corporation Camping Le Relais Lac-aux-Sables","1000 CH. de la Traverse","Lac-aux-Sables","G0X1M0","Mékinac","www.campinglerelais.ca",1146847505,NA,NA,NA,46.858918,-72.398456
"Le Festival International du Film de Trois-Rivières","1285 RUE Notre-Dame-Centre","Trois-Rivières","G9A5K8","Trois-Rivières","tr-iff.ca",1172335128,NA,NA,NA,46.342212,-72.539016
"Association des Francs Copains de Windigo","120 11E AVENUE NORD","Sainte-Thècle","G0X3G0","Mékinac",NA,NA,NA,NA,NA,46.815667,-72.505347
"Coopérative de solidarité de Yamachiche","461 ch. des Caron","Yamachiche","G0X3L0","Maskinongé",NA,1176673573,NA,NA,NA,46.290757,-72.872806
"Coopérative d'aqueduc du Bois-Blanc","471 rte du Bois-Blanc","Saint-Justin","J0K2V0","Maskinongé",NA,1144513083,NA,NA,NA,46.235963,-73.111701
"Les villages étudiants inc.","858 rue Laviolette","Trois-Rivières","G9A5J1","Trois-Rivières","www.camplacencoeur.qc.ca",1144246544,NA,NA,NA,46.349071,-72.544762
"Zoothérapie Mauricie","1515 rue Lapierre","Trois-Rivières","G8W2J1","Trois-Rivières","www.animauxauboulot.com",1173814071,NA,NA,NA,46.411496,-72.608386
"Association de chasse et de pêche de la rivière Bostonnais Nord inc.","1060 rang Saint-Pierre S","Hérouxville","G0X1J0","Mékinac",NA,1142911727,NA,NA,NA,46.673763,-72.613636
"CPE L'Arbre enchanté","455 rue des Vétérans","Trois-Rivières","G8T2W8","Trois-Rivières",NA,NA,NA,NA,NA,46.377324,-72.50983
"Ressource d'hébergement La Ritournelle","70 ch. Bernier","Saint-Boniface","G0X2L0","Maskinongé",NA,1161340733,NA,NA,NA,46.52279,-72.809785
"La Caisse Populaire de Notre Dame du Mont Carmel.","3960 rue Monseigneur-Béliveau","Notre-Dame-du-Mont-Carmel","G0X3J0","Des Chenaux",NA,NA,NA,NA,NA,46.489002,-72.655901
"L4B 35 - Coopérative de solidarité entrepreneuriale universitaire","425 rue des Forges","Trois-Rivières","G9A2H4","Trois-Rivières",NA,1174473042,NA,NA,NA,46.342049,-72.544235
"Les Petits Collégiens","500 rue des Forges","Trois-Rivières","G9A2H5","Trois-Rivières","lespetitscollegiens.com",1160055852,NA,NA,NA,46.342473,-72.545285
"Coopérative d'habitation Pierre Boucher du cap","2-40 rue Pierre-Boucher","Trois-Rivières","G8W1N1","Trois-Rivières",NA,1144264570,NA,NA,NA,46.37702,-72.564751
"Coopérative Monark","225 route 132 Ouest","Trois-Pistoles","G0L4K0","Trois-Rivières",NA,1169087385,NA,NA,NA,48.086946,-69.250276
"Les écrits des Forges","992A rue Royale","Trois-Rivières","G9A4H9","Trois-Rivières","www.ecritsdesforges.com",1143243955,NA,NA,NA,46.345232,-72.542945
"Buffet Bouff'Elles","1060 rue St-François-Xavier","Trois-Rivières","G9A1R8","Trois-Rivières","www.buffetsbouffelles.com",NA,NA,NA,NA,46.350513,-72.545365
"Corporation touristique de Batiscan","1000 rue Principale","Batiscan","G0X1A0","Des Chenaux","www.batiscan.ca/fr/tourisme/corporation",1149962061,NA,NA,NA,46.53957,-72.230331
"Coop de solidarité Multiservices Montauban","545 av. des Loisirs","Notre-Dame-de-Montauban","G0X1W0","Mékinac",NA,1166522327,NA,NA,NA,46.876246,-72.308248
"Coopérative de solidarité en technique de scène","1425 PLACE de l'Hôtel-de-ville","Trois-Rivières","G9A5H3","Trois-Rivières",NA,1175020842,NA,NA,NA,46.342716,-72.543163
"Coopérative d""habitation Solveil de Trois-Rivières","2-5085 rue Chabanel","Trois-Rivières","G8Y5GY","Trois-Rivières",NA,1147576699,NA,NA,NA,46.369387,-72.587508
"Regroupement des métiers d'art de la Mauricie","1425 PLACE de L'Hôtel de ville","Trois-Rivières","G9A5H3","Trois-Rivières","www.emametiersdart.ca",1163363642,NA,NA,NA,46.342716,-72.543163
"Coopérative d'aide à domicile de la MRC de Maskinongé","760 boul. Saint-Laurent E","Louiseville","J5V1H9","Maskinongé","www.cadmaski.com",1147449848,NA,NA,NA,46.25776,-72.918795
"Coop HD Québec (hygiénistes dentaires autonomes)","130-1060 rue St-François-Xavier","Trois-Rivières","G9A1R8","Trois-Rivières","Coop HD Québec (hygiénistes dentaires)",NA,NA,NA,NA,46.350433,-72.545267
"Groupe Envir-eau-sol inc.","680 rue Sainte-Anne","Yamachiche","G0X3L0","Maskinongé",NA,1146904017,NA,NA,NA,46.283243,-72.828426
"Centre Communautaire De Loisirs Jean-Noël Trudel","55 Rue Mercier","Trois-Rivières","G8T5R3","Trois-Rivières","centrejnt.com",1144144590,NA,NA,NA,46.363388,-72.507479
"Séminaire de Trois-Rivières","858 rue Laviolette","Trois-Rivières","G9A5J1","Trois-Rivières","ssj.qc.ca",NA,NA,NA,NA,46.349071,-72.544762
"Les cuisines collectives de Francheville","145-1060 RUE Saint-François-Xavier B","Trois-Rivières","G9A1R8","Trois-Rivières",NA,1147946942,NA,NA,NA,46.350433,-72.545267
"Caisse Desjardins de l'ouest de la Mauricie","75 avenue Saint-Laurent","Louiseville","J5V1J6","Maskinongé","www.desjardins.com/votre-caisse/index.jsp?transit=81510106",1163420525,NA,NA,NA,46.255778,-72.94441
"Caisse populaire Desjardins de Maskinongé","62 rue Saint-Aimé","Maskinongé","J0K1N0","Maskinongé","www.desjardins.com/votre-caisse/index.jsp?transit=81510035",NA,NA,NA,NA,46.227459,-73.013288
"P'tit Marché des Chenaux","375 BOUL. de Lanaudière","Sainte-Anne-de-la-Pérade","G0X2J0","Des Chenaux","www.ptitmarchedeschenaux.org",1176994011,NA,NA,NA,46.571724,-72.201332
"Club de chasse et de pêche St-Maurice","2800 CHEMIN WAYAGAMAK","La Tuque","G9X3P6","La Tuque","www.clubstmaurice.com",NA,NA,NA,NA,47.440907,-72.781665
"Association récréative Club Latuquois inc.","1529 ch. Fitzpatrick","La Tuque","G9X3N7","La Tuque","www.ville.latuque.qc.ca/fr/repertoire/2379/club-latuquois",1142285395,NA,NA,NA,47.464842,-72.777047
"Services communautaires Batiscan inc.","601 rue Principale","Lac-aux-Sables","G0X1M0","Mékinac",NA,1166225160,NA,NA,NA,46.862163,-72.393693
"Hauts Boisés de Grand-Mère","1601 10e avenue","Shawinigan","G9N1H5","Shawinigan",NA,NA,NA,NA,NA,46.607814,-72.708294
"Maison de Transition de la Batiscan","1605 rue Principale","Saint-Saintanislas","G0X3E0","Des Chenaux","www.maisonbatiscan.com",1142305995,NA,NA,NA,46.615992,-72.385152
"Centre nautique de Grandes-Piles","253 ch. de Florence","Grandes-Piles","G0X1H0","Mékinac","centrenautiquedegrandespiles.com",1175486308,NA,NA,NA,46.681374,-72.704074
"CAB du Rivage","101-1 Rue Fusey","Trois-Rivières","G8T2T2","Trois-Rivières",NA,NA,NA,NA,NA,46.365687,-72.526862
"Les Incroyables comestibles Saint-Adelphe","215 rue Principale","Saint-Adelphe","G0X2G0","Mékinac",NA,1172757164,NA,NA,NA,46.737938,-72.434551
"Coop l'anglais à la carte","39 rue Vaillancourt","Trois-Rivières","G8T1Y6","Trois-Rivières","cooplanglaisalacarte.business.site",1174492703,NA,NA,NA,46.380273,-72.546126
"St-Adelforce inc.","150 RUE BAILLARGEON","Saint-Adelphe","G0X2G0","Mékinac",NA,1163957302,NA,NA,NA,46.734561,-72.430771
"Les Éditions communautaires des Chenaux","44 Chemin Rivière-à-Veillet","Sainte-Geneviève-de-Batiscan","G0X2R0","Des Chenaux","lebulletin-enligne.com",NA,NA,NA,NA,46.539736,-72.341331
"Musée du baseball Fernand-Bédard","231 rue des Érables","Trois-Rivières","G8T5G9","Trois-Rivières","www.facebook.com/museebaseballmuseum",1175700559,NA,NA,NA,46.369557,-72.511786
"Odaci danse et cirque","269 5E rue de la Pointe","Shawinigan","G9N1E2","Shawinigan","www.odaci.shop",NA,NA,NA,NA,46.540528,-72.745763
"Club de chasse et pêche Grand-Mère","135 boul. Thibeau","Trois-Rivières","G8T6X8","Trois-Rivières",NA,NA,NA,NA,NA,46.368201,-72.534541
"Opéra de Trois-Rivières","861 rue du Haut-Boc","Trois-Rivières","G9A4W7","Trois-Rivières","operadetroisrivieres.org",1176158773,NA,NA,NA,46.346259,-72.541092
"Pavillon St-Arnaud","2900 Mgr. St-Arnaud","Trois-Rivières","G9A5L2","Trois-Rivières","www.pavillonst-arnaud.com",1145427440,NA,NA,NA,46.342477,-72.539925
"Collectif des artistes en arts visuels de la MRC Des Chenaux, Coopérative de solidarité Cent-Arts","1525 rue Laviolette","Trois-Rivières","G9A1W5","Des Chenaux",NA,NA,NA,NA,NA,46.352942,-72.550853
"CPE L'Univers de Mamuse et Méduque inc.","2855 RUE Monseigneur Saint-Arnaud","Trois-Rivières","G9A5H5","Trois-Rivières","www.cpemamu.com",NA,NA,NA,NA,46.333225,-72.553016
"Coopérative de solidarité Abattoir Massicotte","3720 rang Saint-Alexis","Saint-Luc-de-Vincennes","G0X3K0","Des Chenaux",NA,1170124946,NA,NA,NA,46.488308,-72.42894
"Friperie St-Louis","815 rue Louis-de-France","Trois-Rivières","G8T1A2","Trois-Rivières",NA,1172104185,NA,NA,NA,46.423377,-72.595883
"Association générale des étudiants du cegep de Trois-Rivières inc.","3175 boul. Laviolette","Trois-Rivières","G8Z1E9","Trois-Rivières","agectr.ca",NA,NA,NA,NA,46.358501,-72.568898
"Coopérative de solidarité d'intégration socio-professionnelle Adirondak","911 NOTRE-DAME SUD","Louiseville","J5V2L4","Maskinongé","www.coopadirondak.ca",1148693667,NA,NA,NA,46.24222,-72.924014
"Coopérative Vision - Éducation","3550 rue Marguerite-Seigneuret","Trois-Rivières","G9B0M5","Trois-Rivières",NA,1171889307,NA,NA,NA,46.322634,-72.625698
"Corporation de Transport Adapté et Collectif du Haut St-Maurice","885 Boul. Ducharme bureau SS-23","La Tuque","G9X3C1","La Tuque","www.ctachsm.org",NA,NA,NA,NA,47.428524,-72.78627
"Festi-volant Grandes-Piles","630 4e Avenue","Grandes-Piles","G0X1H0","Mékinac","www.festivolant.com",1168076280,NA,NA,NA,46.68669,-72.726246
"Agence immobilière sociale","330-1060 rue Saint-François-Xavier","Trois-Rivières","G9A1R8","Trois-Rivières","www.v3r.net/activites-et-loisirs/repertoire-des-organismes/agence-immobiliere-sociale",1166177346,NA,NA,NA,46.350433,-72.545267
"Académie Taekwon-do Pierre Laquerre de St-Étienne-des-Grès","220 av. Richard","Saint-Boniface","G0X2L0","Maskinongé","www.atpl-itf.com",1147515887,NA,NA,NA,46.48309,-72.847761
"CPE Flocons de Rêve inc.","1875 rue Notre-Dame","Saint-Maurice","G0X2X0","Des Chenaux","www.floconsdereve.com",NA,NA,NA,NA,46.47458,-72.540667
"CPA St-Boniface Les Perce-Neige","180 RUE LANGEVIN","Saint-Boniface","G0X2L0","Maskinongé",NA,NA,NA,NA,NA,46.500159,-72.831776
"Corporation de l'exposition agricole du centre-du-Québec","1760 AVENUE GILLES VILLENEUVE CASE POSTALE 1268","Trois-Rivières","G9A5K8","Trois-Rivières","expotr.ca",1144599215,NA,NA,NA,46.347515,-72.559824
"Coopérative de solidarité Echo consultants historiques","1690 rue Pierre-F.-Pinsonneault","Trois-Rivières","G8Y6S3","Trois-Rivières",NA,NA,NA,NA,NA,46.369075,-72.609202
"Allaitement-Soleil","557 4ième rue de la Pointe","Shawinigan","G9N1G9","Shawinigan","www.allaitement-soleil.org",1144252328,NA,NA,NA,46.537506,-72.747177
"Le Bucafin - Cybernet café de Trois-Rivières","920 boul. du Saint-Maurice","Trois-Rivières","G9A3P9","Trois-Rivières","bucafin.qc.ca",NA,NA,NA,NA,46.350902,-72.548563
"Le temps d'une pinte coop de travail brassicole","1465 rue Notre-Dame Centre","Trois-Rivières","G9A4X4","Trois-Rivières","letempsdunepinte.ca",1168450733,NA,NA,NA,46.341427,-72.540624
"Corporation de développement communautaire de Trois-Rivières","207-399-A BLVD Ste-Madeleine","Trois-Rivières","G8T3M8","Trois-Rivières","cdc3r.org",1146872669,NA,NA,NA,46.368417,-72.50573
"Coopérative Enfant Nature","1900 avenue Melville","Shawinigan","G9N6T8","Shawinigan","www.coopenfantnature.org",NA,NA,NA,NA,46.533213,-72.754938
"Association forestière de la Vallée du St-Maurice","210-500 avenue Broadway - -220","Shawinigan","G9N1M3","Shawinigan","afvsm.qc.ca",NA,NA,NA,NA,46.54058,-72.743967
"Les productions théâtrales TGP","70 rue Langelier","Trois-Rivières","G8W1S9","Trois-Rivières","tgptheatre.com",1140875007,NA,NA,NA,46.375917,-72.572008
"CPE Carmel la Sauterelle","200 rue Saint-Honoré","Saint-Étienne-des-Grès","G0X2P0","Maskinongé",NA,NA,NA,NA,NA,46.442503,-72.770396
"Camp Minogami","2630 Chem. Principal","Saint-Gérard-des-Laurentides","G9R1W3","Shawinigan","www.camps-odyssee.com",1143148568,NA,NA,NA,46.602623,-72.815883
"SIT-Mauricie (Service d'intégration au travail)","1090 rue De La Vérendrye","Trois-Rivières","G9A2S8","Trois-Rivières","www.sitmauricie.com",1149661887,NA,NA,NA,46.339918,-72.555037
"La maison du commis-voyageur","115 av. Saint-Laurent","Louiseville","J5V1J6","Maskinongé",NA,1164030711,NA,NA,NA,46.25566,-72.942644
"Bassin versant Saint-Maurice (BVSM)","1395 ch. Principal","Shawinigan","G9R1E5","Shawinigan","www.bvsm.ca",1143103613,NA,NA,NA,46.60252,-72.81364
"CPE Sakihitokiwan","32C rue Tcikatnaw","Obedjiwan","G0W3B0","La Tuque",NA,NA,NA,NA,NA,48.655404,-74.939511
"Camp Val Notre-Dame","100 ch. Val-Notre-Dame","Hérouxville","G0X1J0","Mékinac","www.campvalnotre-dame.com",1142603878,NA,NA,NA,46.706305,-72.646449
"Arche Mauricie inc.","570 rue Saint-Paul","Trois-Rivières","G9A1H8","Trois-Rivières","www.larchemauricie.com/fr",1141268723,NA,NA,NA,46.348901,-72.538789
"Association chasse et pêche Flechée inc.","2420 RTE 155 S","La Tuque","G9X3N8","La Tuque",NA,1143835644,NA,NA,NA,47.215534,-72.890552
"Journal Le Stéphanois inc.","1260 RUE St-Alphonse","Saint-Étienne-des-Grès","G0X2P0","Maskinongé","www.lestephanois.ca",1144008639,NA,NA,NA,46.441862,-72.771299
"Caisse Desjardins du centre-de-la-Mauricie","2500 105e Avenue","Shawinigan","G9P1P6","Shawinigan","www.desjardins.com/votre-caisse/index.jsp?transit=81510001",1172421464,NA,NA,NA,46.517831,-72.742207
"Corporation de développement communautaire de St-Boniface de Shawinigan inc.","180 RUE LANGEVIN CASE POSTALE 2027","Saint-Boniface","G0X2L0","Maskinongé",NA,1148218564,NA,NA,NA,46.500159,-72.831776
"Moulin seigneurial de la Pointe-du-Lac inc.","11930 NOTRE-DAME OUEST","Trois-Rivières","G9B6X1","Trois-Rivières","moulin-pointedulac.com",1144207132,NA,NA,NA,46.287768,-72.689207
"Transport adapté & collectif des Chenaux","660b rue Principale","Saint-Luc-de-Vincennes","G0X3K0","Des Chenaux",NA,NA,NA,NA,NA,46.497234,-72.420511
"Coopérative d'habitation royale de shawinigan","3-1982 rue Alexandre-Gélinas","Shawinigan","G9N8K4","Shawinigan",NA,NA,NA,NA,NA,46.56092,-72.746242
"Collège Marie-de-l'incarnation","725 RUE HART","Trois-Rivières","G9A4R9","Trois-Rivières","cmitr.qc.ca",1143442342,NA,NA,NA,46.346344,-72.537946
"Parc de la rivière Batiscan","200 chemin du Barrage","Saint-Narcisse","G0X2Y0","Des Chenaux","parcbatiscan.ca",1142274688,NA,NA,NA,46.548565,-72.410184
"La Villa Tournesol","80 116e Rue","Shawinigan","G9P5K7","Shawinigan","villatournesol.org",1147878525,NA,NA,NA,46.524397,-72.74576
"Journal communautaire parent","2 RUE DE L'HÔTEL DE VILLE","Parent","G0X3P0","La Tuque",NA,1164141039,NA,NA,NA,47.919942,-74.612517
"mouv, académie de danse","103-1 Rue Fusey","Trois-Rivières","G8T2T2","Trois-Rivières",NA,1171440705,NA,NA,NA,46.365687,-72.526862
"Association chasse et pêche et villégiature du tawachiche inc.","202 CHEMIN TAWACHICHE","Lac-aux-Sables","G0X1M0","Mékinac","zectawachiche.reseauzec.com",NA,NA,NA,NA,46.928531,-72.467984
"Coop de solidarité en services immobiliers - Habitations populaires du Québec","1160 terr. Turcotte","Trois-Rivières","G9A5C6","Trois-Rivières","habitationsduquebec.com/index.php",1149308265,NA,NA,NA,46.342267,-72.537686
"Mis-mek communautaire","258 ch. Saint-Joseph","Trois-Rives","G0X2C0","Mékinac","www.facebook.com/Camping-et-Rampe-de-Mise-%C3%A0-leau-Mis-Mek-Communautaire-365306330187633",1147103361,NA,NA,NA,46.917142,-72.699642
"Coop de solidarité radio communautaire de la MRC de Maskinongé Country POP 103,1","47 rue Saint-Thomas","Louiseville","J5V2A3","Maskinongé",NA,NA,NA,NA,NA,46.255043,-72.94352
"Association de chasse et pêche Asjtabec inc.","55 rue du Domaine-Morency","La Tuque","G9X3N7","La Tuque","zecborgia.reseauzec.com",NA,NA,NA,NA,47.460625,-72.763468
"SACERF Macousine inc.","2 CH. Petit Lac Ecarté","La Tuque","G9X3N6","La Tuque","zeckiskissink.reseauzec.com",1144657047,NA,NA,NA,47.456765,-72.761907
"Premier envol","1-20 rue Marcelle-Ferron","Louiseville","J5V0A1","Maskinongé","premierenvol2007.wixsite.com/premier-envol",1161105482,NA,NA,NA,46.251502,-72.939132
"Centre d'organisation Mauricien de services et d'éducation populaire COMSEP","250-1060 rue Saint-François-Xavier","Trois-Rivières","G9A1R8","Trois-Rivières","comsep.qc.ca",NA,NA,NA,NA,46.350433,-72.545267
"CPE La Bottine Souriante","4895 boul. de Shawinigan-Sud","Shawinigan","G9N6T5","Shawinigan","www.cpebottinesouriante.com",NA,NA,NA,NA,46.493651,-72.713092
"Coopérative de solidarité équestre St-Pierre","151 rue Principale","Saint-Étienne-des-Grès","G0X2P0","Maskinongé",NA,NA,NA,NA,NA,46.415545,-72.731537
"Groupe ""Voix de femmes St-Mathieu-du-Parc""","1210 ch. Principal","Saint-Mathieu-du-Parc","G0X1N0","Maskinongé",NA,1143810241,NA,NA,NA,46.602149,-72.869765
"Coopérative d'habitation St-Philippe de Trois-Rivières","211-3675 boul. du Chanoine-Moreau","Trois-Rivières","G8Y5M6","Trois-Rivières",NA,1144261527,NA,NA,NA,46.359865,-72.586593
"Centre des arts et sciences","693 rue des Ursulines","Trois-Rivières","G9A5B3","Trois-Rivières",NA,1171648646,NA,NA,NA,46.344149,-72.535479
"La coopérative de solidarité le 507","507 rue Saint-Georges","Trois-Rivières","G9A2K7","Trois-Rivières","www.le507.coop",NA,NA,NA,NA,46.341504,-72.546315
"Atelier des Vieilles Forges inc.","1000 place Boland","Trois-Rivières","G8Z4H2","Trois-Rivières","avf.qc.ca",1141981853,NA,NA,NA,46.340444,-72.579676
"AlterNature Centre d'apprentissage libre","3981 rang des Grès","Notre-Dame-du-Mont-Carmel","G0X3J0","Des Chenaux","www.facebook.com/AlterNature-Centre-dapprentissage-libre-105656858250589/?ref=page_internal",1176490614,NA,NA,NA,46.443752,-72.719594
"Auberge Internationale Premiers Quartiers","497 rue Radisson","Trois-Rivières","G9A2C7","Trois-Rivières",NA,NA,NA,NA,NA,46.343627,-72.544402
"Coopérative de solidarité santé de St-Boniface","157 Rue Langevin","Saint-Boniface","G0X2L0","Maskinongé","www.coopsantesaint-boniface.com",1164748080,NA,NA,NA,46.501147,-72.830171
"Musée POP","200 rue Laviolette","Trois-Rivières","G9A6L5","Trois-Rivières","museepop.ca",1141486275,NA,NA,NA,46.344564,-72.540354
"Caisse Populaire Desjardins Cité de Shawinigan","1795 Av. Saint-Marc","Shawinigan","G9N2H6","Shawinigan",NA,NA,NA,NA,NA,46.552364,-72.744495
"Centre d'Apprentissage et de Formation en Entrepreneuriat féminin (CAFE féminin)","1250 ave de la Station","Shawinigan","G0N8K9","Shawinigan",NA,NA,NA,NA,NA,46.545617,-72.749825
"La Nature d'Alexis coopérative de solidarité","180 rue Notre-Dame","Saint-Alexis-des-Monts","J0K1V0","Maskinongé","lanaturedalexis.com",1166447467,NA,NA,NA,46.459674,-73.145393
"Comité zip les deux rives","3930 rue Louis-Pinard","Trois-Rivières","G8Y4L9","Trois-Rivières","www.zip2r.org/accueil",1148464945,NA,NA,NA,46.350145,-72.589477
"CPE Le Cheval Sautoir","678 rue Hart","Trois-Rivières","G9A4R8","Trois-Rivières","www.monsitew.com/Site/cpelechevalsautoir/ZonePublic/Accueil/LaUne",NA,NA,NA,NA,46.346522,-72.537812
"Corporation théâtre La corde à linge","240 rue Lévis","Saint-Tite","G0X3H0","Mékinac",NA,1144209344,NA,NA,NA,46.731289,-72.56572
"CPE Margo la lune","1935 boul. Hamelin","Trois-Rivières","G8Y0A3","Trois-Rivières",NA,NA,NA,NA,NA,46.36852,-72.618455
"Coopérative de solidarité en habitation de Saint-Stanislas","24 rue Saint-Gabriel","Saint-Saintanislas","G0X3E0","Des Chenaux",NA,1165099806,NA,NA,NA,46.612024,-72.387403
"Radio Ville-Marie-Maurice-Centre-du-Québec","890 boul. du Saint-Maurice","Trois-Rivières","G9A3P8","Trois-Rivières","www.radiovm.com",NA,NA,NA,NA,46.351392,-72.54797
"CPE La Clé des Champs inc.","385 rue Saint-Zéphirin","La Tuque","G9X1X7","La Tuque","www.monsitew.com/Site/cpelacledeschamps/ZonePublic/Accueil",NA,NA,NA,NA,47.43115,-72.780796
"Association pour la déficience intellectuelle et du trouble du spectre l'autisme Centre-Mauricie/Mékinac","2153 RUE GIGNAC","Shawinigan","G9N3X3","Shawinigan","ADI-MAURICIE.CA",NA,NA,NA,NA,46.562934,-72.747211
"Coopérative de solidarité de développement local de Montauban","205 rte de la Traverse","Notre-Dame-de-Montauban","G0X1W0","Mékinac",NA,1163705198,NA,NA,NA,46.8788,-72.313607
"Festival de la galette de sarrasin","26-131 RANG PETITE RIVIERE","Louiseville","J5V2H3","Maskinongé","festivalsarrasin.com/#notre-region",1149197239,NA,NA,NA,46.242965,-72.949521
"Camping Latuquois","1529 Chem. Fitzpatrick","La Tuque","G9X3N7","La Tuque",NA,1144344778,NA,NA,NA,47.464842,-72.777047
"Corporation radio Attikamekw de Wemotaci","36 rue Kenosi","Wemotaci","G0X3R0","La Tuque",NA,NA,NA,NA,NA,47.902565,-73.787333
"COOPÉRATIVE DE SOLIDARITÉ ETC","511 rue Tessier","La Tuque","G9X3E8","La Tuque","coop-etc.letamtamcom.org",1165734485,NA,NA,NA,47.440114,-72.786418
"Centre de formation communautaire de la Mauricie (CFCM)","205-399A boul. Sainte-Madeleine","Trois-Rivières","G8T3M7","Trois-Rivières","cfcmmauricie.org",1143115344,NA,NA,NA,46.368417,-72.50573
"Ozias Leduc","825 avenue Ozias-Leduc","Shawinigan","G9P1E1","Shawinigan","www.oziasleducenmauricie.com",NA,NA,NA,NA,46.527484,-72.750027
"Coopérative d'habitation le bonheur de Trois-Rivières","715 rue Hertel","Trois-Rivières","G9A1G9","Trois-Rivières",NA,NA,NA,NA,NA,46.350533,-72.539817
"Club l'Écureuil","1760 rang Saint-Alexis","Saint-Maurice","G0X2X0","Des Chenaux",NA,1145229846,NA,NA,NA,46.429968,-72.542231
"Coopérative de solidarité Quartier-Monde","919 Boulevard du Saint-Maurice","Trois-Rivières","G9A3R1","Trois-Rivières","coopquartiermonde.ca",1173372047,NA,NA,NA,46.35064,-72.548281
"Coopérative de solidarité Canada-Burundi","1565 rue de Rome","Trois-Rivières","G8W0A7","Trois-Rivières",NA,1175610469,NA,NA,NA,46.383469,-72.566348
"Coopérative d'aqueduc de l'Orme-isaie","1340 ch. Louis-Gatineau","Yamachiche","G0X3L0","Maskinongé",NA,NA,NA,NA,NA,46.269926,-72.783738
"Corporation de développement durable de Mékinac (Pont Mékinac)","560 NOTRE DAME","Saint-Tite","G0X3H0","Mékinac",NA,1142043141,NA,NA,NA,46.726617,-72.564623
"Coopérative d'habitation l'intermède de Louiseville","1160 RUE Terrasse Turcotte","Trois-Rivières","J5V2Z3","Trois-Rivières",NA,1144370617,NA,NA,NA,46.342238,-72.53753
"Coopérative de solidarité en habitation de St-Jean-des-Piles","1531 ch. de Saint-Jean-des-Piles","Shawinigan","G0X2V0","Shawinigan","coopstjeandespiles.com",NA,NA,NA,NA,46.691199,-72.740351
"Coopérative d'habitation Ste-Madeleine du cap","1-455 rue Montplaisir","Trois-Rivières","G8T3B4","Trois-Rivières",NA,1144108975,NA,NA,NA,46.369399,-72.514038
"Coopérative d'habitation le trait-d'union de Trois-Rivières- Ouest","1-775 rue Couture","Trois-Rivières","G9A5Y6","Trois-Rivières",NA,NA,NA,NA,NA,46.326416,-72.576184
"M. le plombier coop","12340 BOUL. Loranger","Trois-Rivières","G9B1H7","Trois-Rivières",NA,NA,NA,NA,NA,46.339064,-72.635419
"Coopérative d'habitation des Trois Pèlerins","3-580 rue Forget","Trois-Rivières","G8T6C8","Trois-Rivières",NA,1143187947,NA,NA,NA,46.383706,-72.542743
"Association Presse-Papiers inc.","73 rue Saint-Antoine","Trois-Rivières","G9A2J2","Trois-Rivières","www.pressepapier.net",1144471407,NA,NA,NA,46.340894,-72.540731
"Caisse Desjardins de l'Est de Trois-Rivières","670 boul. Thibeau","Trois-Rivières","G8T6Z8","Trois-Rivières","www.desjardins.com/votre-caisse/index.jsp?transit=81510006",1171511653,NA,NA,NA,46.382768,-72.547334
"CPE Le Moulin des Bambins","51 de la Sablière","Trois-Rivières","G9B7A7","Trois-Rivières",NA,NA,NA,NA,NA,46.306788,-72.644495
"Les Ateliers de la Fondation TCC MCQ","39 rue Bellerive","Trois-Rivières","G8T6J4","Trois-Rivières","fondationtcc.org",1148057699,NA,NA,NA,46.360829,-72.512319
"Musée des Ursulines de Trois-Rivières","734 rue des Ursulines","Trois-Rivières","G9A5B5","Trois-Rivières","musee-ursulines.qc.ca",1142698407,NA,NA,NA,46.344798,-72.537166
"Coopération d'habitation l'Entretoit de Trois-Rivières","5450 rue Léon-Méthot","Trois-Rivières","G8Y5M2","Trois-Rivières",NA,NA,NA,NA,NA,46.361917,-72.597042
"Coopérative d'habitation Entre-Nous","6-2482 rue St-Prosper","Shawinigan","G9N2X6","Shawinigan",NA,NA,NA,NA,NA,46.509558,-72.828147
"Coop de travail brasserie artisanale Le Trou du Diable","412 AVENUE WILLOW","Shawinigan","G9N1X2","Shawinigan","troududiable.com",1162201314,NA,NA,NA,46.540183,-72.753349
"Association des pourvoyeurs et pêcheurs du poisson Des Chenaux de la Rivière Ste-Anne inc.","8 rue Marcotte","Sainte-Anne-de-la-Pérade","G0X2J0","Des Chenaux","lespetitspoissons.ca/nous-joindre",1142095497,NA,NA,NA,46.571419,-72.205309
"Club de boxe Performance","172 rue Michener","Trois-Rivières","G8T1V9","Trois-Rivières","clubperformance.ca",1167963645,NA,NA,NA,46.388179,-72.539001
"Coopérative des ambulanciers de la Mauricie","7325 boul. Jean-XXIII","Trois-Rivières","G9A5C9","Trois-Rivières","www.ambulancecam.com",1144341303,NA,NA,NA,46.322278,-72.602407
"Cuisine Coopérative de solidarité - La Boîte à Lunch","2182 Rue St Philippe","Trois-Rivières","G9A4V7","Trois-Rivières","cooplaboitealunch.com",NA,NA,NA,NA,46.336035,-72.547152
"Café Édouard, coopérative de solidarité","4430 4e rang du Grand-Portage","Saint-Édouard-de-Maskinongé","J0K2H0","Maskinongé","www.lechodemaskinonge.com/societe/le-cafe-edouard-a-cesse-ses-activites-2",NA,NA,NA,NA,46.340662,-73.188547
"Coopérative de solidarité en habitation de Ste-Thècle","105 RUE Lacordaire","Sainte-Thècle","G0X3G0","Mékinac",NA,NA,NA,NA,NA,46.81775,-72.505398
"OBVRLY - Organisme de bassins versants des Rivières du loup et des Yamachiche","780 RUE Saint-Joseph","Saint-Barnabé","G0X2K0","Maskinongé","www.obvrly.ca",NA,NA,NA,NA,46.394015,-72.879212
"Appartenance Mauricie société d'histoire régionale","2152 RUE Cascade","Shawinigan","G9N6T9","Shawinigan","appartenancemauricie.ca",1144778447,NA,NA,NA,46.541857,-72.758054
"Camp du Lac Vert","850 ch. du Lac-Vert","Saint-Mathieu-du-Parc","G0X1N0","Maskinongé","campdulacvert.net/HTML/index.html",1142321679,NA,NA,NA,46.567743,-72.932924
"Communo-gym (COMSEP)","1060 rue St-François-Xavier","Trois-Rivières","G9A1R8","Trois-Rivières",NA,NA,NA,NA,NA,46.350513,-72.545365
"Coopérative d'habitation du Centre de Grand-Mère","6-505 7e rue","Shawinigan","G9T4N1","Shawinigan",NA,NA,NA,NA,NA,46.614994,-72.69447
"Vieux presbytère de Batiscan","340 rue Principale","Batiscan","G0X1A0","Des Chenaux",NA,1143131077,NA,NA,NA,46.482108,-72.25822
"Coopérative de solidarité propulsion sports","1530 av. de Grand-Mère","Shawinigan","G9T2K1","Shawinigan",NA,NA,NA,NA,NA,46.607063,-72.70376
"Réseau d'Habitation Communautaire de la Mauricie","121 St-Antoine","Trois-Rivières","G9A2J3","Trois-Rivières",NA,NA,NA,NA,NA,46.3411,-72.541685
"Coopérative d'habitation Logi-cile de Trois-Rivières","835 rue des Ursulines","Trois-Rivières","G9A5B8","Trois-Rivières",NA,1144369551,NA,NA,NA,46.343398,-72.537321
"Camp et Auberge du Lac en Coeur","858 rue Laviolette","Trois-Rivières","G9A5S3","Trois-Rivières","www.camplacencoeur.qc.ca",NA,NA,NA,NA,46.349071,-72.544762
"CPE Le cerf-Volant inc.","925 rue Tousignant","Trois-Rivières","G8V2R7","Trois-Rivières",NA,NA,NA,NA,NA,46.396813,-72.543544
"CPE Les Recrues du Cégep","2263 av. du Collège","Shawinigan","G9N6V8","Shawinigan","www.cegepshawinigan.ca/services-a-la-population/cpe-recrues-cegep",NA,NA,NA,NA,46.564126,-72.7528
"Caisse Desjardins de St-Boniface","130 rue Guillemette","Saint-Boniface","G0X2L0","Maskinongé","www.desjardins.com",NA,NA,NA,NA,46.504251,-72.82603
"Bulletin communautaire Le Tour d'y Voir","749 boul. du Saint-Maurice","Trois-Rivières","G9A3P5","Trois-Rivières",NA,NA,NA,NA,NA,46.352096,-72.545674
"Coop les Affranchis","141 rue du Lac-Bellerive","Saint-Élie-de-Caxton","G0X2N0","Maskinongé","www.lesaffranchis.coop",1142920017,NA,NA,NA,46.496175,-72.907936
"Festival de la truite mouchetée de St-Alexis-des-monts inc.","30 rue Saint-Olivier","Saint-Alexis-des-Monts","J0K1V0","Maskinongé","www.festivaldelatruitemouchetee.com",1142063156,NA,NA,NA,46.462789,-73.143548
"CPE six saisons","68 rue Kenosi","Wemotaci","G0X3R0","La Tuque",NA,NA,NA,NA,NA,47.903143,-73.787351
"Caisse Desjardins des technologies de l'information","513 rue Saint-Louis","La Tuque","G9X2X3","La Tuque","www.desjardins.com/votre-caisse/index.jsp?transit=81592260",NA,NA,NA,NA,47.440522,-72.782913
"Coopérative d'habitation l'héritage","4170 rue de Chambord","Trois-Rivières","G8Y6S7","Trois-Rivières",NA,1172597131,NA,NA,NA,46.351263,-72.602941
"La société protectrice des animaux de la Mauricie inc.","5000 BOUL. Saint-Jean","Trois-Rivières","G9B0N4","Trois-Rivières","www.spamauricie.com",1146002606,NA,NA,NA,46.345867,-72.63129
"Coopérative la Charrette","421 rang 1er Nord","Charette","G0X1E0","Maskinongé","coopcharrette.com",1173236374,NA,NA,NA,46.444684,-72.921331
"Maison Eureka","3383 rue Trudel","Shawinigan","G9N6R4","Shawinigan",NA,1146761573,NA,NA,NA,46.566313,-72.760815
"Soutien à domicile Des Chenaux","110-44 rang de la Rivière-à-Veillet","Sainte-Geneviève-de-Batiscan","G0X2R0","Des Chenaux","aidechezsoideschenaux.com",1142434035,NA,NA,NA,46.564545,-72.341041
"Café COMSEP","1060 rue St-François-Xavier","Trois-Rivières","G9A1R8","Trois-Rivières",NA,1146930681,NA,NA,NA,46.350513,-72.545365
"Coopérative de travail canots composites","10180 ch. Sainte-Marguerite","Trois-Rivières","G9B6M2","Trois-Rivières","canotscomposites.com",1160897675,NA,NA,NA,46.295543,-72.668457
"Lavi-eau-champ","111-290 RUE PRINCIPALE","Saint-Narcisse","G0X2Y0","Des Chenaux","www.lavieauchamp.com",1147043997,NA,NA,NA,46.565641,-72.465648
"Les artisans bénévoles de la paix en Mauricie","700 rue Sainte-Cécile","Trois-Rivières","G9A1L2","Trois-Rivières","www.artisansdelapaix.org",1144033108,NA,NA,NA,46.349664,-72.540399
"CPE Saute-Mouton inc.","3525 BOUL. LAVIOLETTE","Trois-Rivières","G8Z1E9","Trois-Rivières","www.cegeptr.qc.ca/population/cpe-saute-mouton",NA,NA,NA,NA,46.35955,-72.569517
"CPE Le Coffre à jouets","260 rue Vachon","Trois-Rivières","G8T8Y2","Trois-Rivières",NA,NA,NA,NA,NA,46.374045,-72.552191
"CIBES Centre d'intervention budgétaire et sociale de la Mauricie - Bécancour - Nicolet - Yamaska","274 rue Bureau","Trois-Rivières","G9A2M7","Trois-Rivières","cibes-mauricie.ca",NA,NA,NA,NA,46.339165,-72.544515
"LA GAZETTE DE LA MAURICIE","942 rue Sainte-Geneviève","Trois-Rivières","G9A3X6","Trois-Rivières","gazettemauricie.com",1144227494,NA,NA,NA,46.346415,-72.543446
"École de danse Balarel","505 205e Avenue","Shawinigan","G9T3H3","Shawinigan","www.balarel.com",1160323128,NA,NA,NA,46.625548,-72.658526
"Éditions d'art le Sabord","154 rue Radisson (sous-sol)","Trois-Rivières","G9A5M6","Trois-Rivières","www.lesabord.qc.ca",NA,NA,NA,NA,46.342845,-72.540906
"La Cité de l'énergie","1000 av. Melville","Shawinigan","G9N6T9","Shawinigan","www.citedelenergie.com",1142808063,NA,NA,NA,46.5366,-72.757296
"Association de chasse et pêche de Notre-Dame-de-Montauban inc.","751 ch. du Lac-du-Castor","Notre-Dame-de-Montauban","G0X1W0","Mékinac",NA,1143556562,NA,NA,NA,46.871305,-72.226552
"Journal La Rochelle","670 rue Jean-Nil","Trois-Rivières","G8T8V8","Trois-Rivières",NA,1142338616,NA,NA,NA,46.419674,-72.596024
"Coopérative de solidarité du duché de bicolline","1480 ch. Principal","Saint-Mathieu-du-Parc","G0X1N0","Maskinongé","www.bicolline.org",1161100640,NA,NA,NA,46.577005,-72.902298
"Le gymnase social des premiers quartiers de Trois-Rivières","1060 rue Saint-François-Xavier","Trois-Rivières","G9A1R8","Trois-Rivières",NA,NA,NA,NA,NA,46.350513,-72.545365
"Caisse Desjardins de La Tuque","341 rue Saint-Joseph","La Tuque","G9X1L3","La Tuque","www.desjardins.com/votre-caisse/index.jsp?transit=81510103",1142595124,NA,NA,NA,47.440642,-72.78334
"La compagnie du cimetière Forest Hill","3300 BOUL. Des Forges","Trois-Rivières","G8Z1V6","Trois-Rivières","centrerousseau.com/installations/cimetiere-forest-hill",1165254062,NA,NA,NA,46.349543,-72.57306
"Coop de solidarité de St-Adelphe","501 ROUTE 352","Saint-Adelphe","G0X2G0","Mékinac",NA,1163430920,NA,NA,NA,46.728521,-72.435171
"CPE Marie-Lune","3140 rue Louis-Pasteur","Trois-Rivières","G8Z4E3","Trois-Rivières","ciusssmcq.ca",1141222720,NA,NA,NA,46.354364,-72.56468
"Coopérative d'habitation Les douze du cap","3-1034 rue De Mézy","Trois-Rivières","G8T7E7","Trois-Rivières",NA,1144306876,NA,NA,NA,46.390692,-72.556502
"Habitation populaire de La Tuque","492 rue Élisabeth","La Tuque","G9X2B3","La Tuque",NA,1144143311,NA,NA,NA,47.441423,-72.773128
"Bleu forêt, coop de communication responsable","151 rue Saint-Pierre","Saint-Élie-de-Caxton","G0X2N0","Maskinongé","bleu-foret.ca",1177055648,NA,NA,NA,46.489199,-72.959147
"CPE L'île des Mousaillons","700 rue Lorraine","Trois-Rivières","G8W1E3","Trois-Rivières",NA,NA,NA,NA,NA,46.41887,-72.594171
"Caisse Desjardins de Trois-Rivières","5625 boul. Jean-XXIII","Trois-Rivières","G8Z4B2","Trois-Rivières","www.desjardins.com/votre-caisse/index.jsp?transit=81510101",1174229931,NA,NA,NA,46.333758,-72.591483
"Aide chez soi Trois-Rivières","76 boul. Sainte-Madeleine","Trois-Rivières","G8T3K6","Trois-Rivières","aidechezsoi.com/eesad/aide-chez-soi-trois-rivieres",1147771803,NA,NA,NA,46.363415,-72.512635
"CPE La Culbute","1450 rue du Père-Marquette","Trois-Rivières","G8Z4N5","Trois-Rivières","www.cpelaculbute.com",NA,NA,NA,NA,46.348202,-72.572336
"Maski en forme","871 A boul. Saint-Laurent Ouest","Louiseville","J5V1L3","Maskinongé","www.maskirecolte.com",1165787988,NA,NA,NA,46.249455,-72.966951
"Association chasse et pêche Bordure du Parc","600 ch. de l'Esker","Saint-Mathieu-du-Parc","G0X1N0","Maskinongé",NA,1140339996,NA,NA,NA,46.573049,-72.923398
"Les aides familiales de Mékinac","201-301 ST-JACQUES","Sainte-Thècle","G0X3G0","Mékinac","aidesmekinac.ca",NA,NA,NA,NA,46.818583,-72.504294
"Académie de tennis l'Échange","7050 RUE Marion","Trois-Rivières","G9A6G4","Trois-Rivières","academielechange.com",1176426931,NA,NA,NA,46.318167,-72.574688
"La corporation halte-camping du Lac clair et du Lac Roberge","7-650 AVE 4e APP:","Grandes-Piles","G0X1H0","Mékinac","airenature.com",1161466777,NA,NA,NA,46.686256,-72.725133
"Pavillon de l'assuétude","3383 rue Trudel","Shawinigan","G9N6R4","Shawinigan","www.pavillondelassuetude.ca",NA,NA,NA,NA,46.566313,-72.760815
"Les ateliers Latuquois","429 rue Joffre","La Tuque","G9X2M5","La Tuque",NA,1145201670,NA,NA,NA,47.443199,-72.779018
"Coopérative de solidarité Enfant Nature","403-1250 avenue de la Station","Shawinigan","G9N8K9","Shawinigan","coopenfantnature.org",1170678750,NA,NA,NA,46.542551,-72.752033
"CAPE - Centre d'activités populaires et éducatives","378 rue Scott","La Tuque","G9X1P5","La Tuque","capelatuque.com",NA,NA,NA,NA,47.438473,-72.780663
"TACM - Transport adapté du comté de Maskinongé","624 avenue Dalcourt","Louiseville","J5V2Z6","Maskinongé",NA,NA,NA,NA,NA,46.260953,-72.953821
"Le Wilson - Café Boutique","452 Av. Willow","Shawinigan","G9N1X2","Shawinigan",NA,NA,NA,NA,NA,46.540312,-72.753623
"Voix de Pasaj","127 rue Radisson","Trois-Rivières","G9A2C5","Trois-Rivières","www.facebook.com/Voixdepasal",NA,NA,NA,NA,46.342573,-72.540543
"Mauricie Arts Vivants","2530 chemin Saint-Édouard","Saint-Mathieu-du-Parc","G0X1N0","Maskinongé",NA,1179379186,NA,NA,NA,46.602096,-72.953907
"La Bourgade, coopératve de solidarité","3981 rang Saint-Alexis","Saint-Luc-de-Vincennes","G0X3K0","Des Chenaux",NA,NA,NA,NA,NA,46.496118,-72.419175
"Sourire mobile","125-1060 rue St-François Xavier","Trois-Rivières","G9A1R8","Trois-Rivières",NA,NA,NA,NA,NA,46.350433,-72.545267
"Coup de main Mauricie","1515 rue Sainte-Marguerite","Trois-Rivières","G9A5E7","Trois-Rivières","www.coupdemainmauricie.org/",1142935551,NA,NA,NA,46.343253,-72.557916
"Nomad.tv","1250 ave de la Station","Shawinigan","G9N1V5","Shawinigan",NA,NA,NA,NA,NA,46.545617,-72.749825
"ZECS Mauricie","1060 rang St-Pierre","Hérouxville","G0X1J0","Mékinac","www.zecsmauricie.com",1148684070,NA,NA,NA,46.673763,-72.613636
"Reliefs Mauriciens","1890 Chem. Principal","Saint-Mathieu-du-Parc","G0X1N0","Maskinongé","reliefs.ca/accueil",1177386019,NA,NA,NA,46.574867,-72.923307
"Coop aventures Matawin","219 chemin de la Matawin","Trois-Rives","G0X2C0","Mékinac","coopaventuresmatawin.ca/",NA,NA,NA,NA,46.905276,-72.933917
"Onirik académie","470 16e Avenue","Shawinigan","G9T1C4","Shawinigan",NA,1178730603,NA,NA,NA,46.620528,-72.698723
"Association des proches aidants de l'énergie Maison Gilles-Carle de Shawinigan","1660 10e Avenue","Shawinigan","G9T5M8","Shawinigan","prochesaidantsshawinigan.ca",NA,NA,NA,NA,46.607587,-72.709963
"La Factrie 701","701 4e rue","Grand-Mère","G9T6J3","Shawinigan","www.factrie701.com",NA,NA,NA,NA,46.612728,-72.691275
"Club Chasse et Pêche St-Maurice","Chem. du Lac-Wayagamac","La Tuque","G9X3N8","La Tuque",NA,NA,NA,NA,NA,47.388418,-72.646014
"La Ruche d'art Kokomino","Communauté de Wemotaci","Wemotaci","G0X3R0","La Tuque","www.facebook.com/p/Ruche-dArt-Kokomino-100067172862505",NA,NA,NA,NA,47.902694,-73.786353
"Coopérative de solidarité sociale Adirondak","911 rue Notre-Dame-Sud","Louiseville","J5V2L4",NA,"www.coopadirondak.ca",NA,"Partenaire COLLECTIF","cooperative-de-solidarite","autre",46.24222,-72.924014
"Andréanne Dubois","4710 rue Papineau","Trois-Rivières","G8Y3Y8",NA,NA,NA,"Citoyen COLLECTIF","autre","service-professionnels-scientifiques-techniques",46.366945,-72.590719
"Aide chez soi Mékinac","201-301 rue St-Jacques","Sainte-Thècle","G0X3G0",NA,"www.aidesmekinac.ca",1147850235,"Membre COLLECTIF","obnl-a-volet-marchand","soins-de-sante-et-assistance-sociale",46.818583,-72.504294
"Corporation Halte Camping du Lac Clair et Lac Roberge (Aire Nature Grandes-Piles)","7-650 4e avenue","Grandes-Piles","G0X1H0",NA,"airenature.com",NA,"Membre COLLECTIF","obnl-a-volet-marchand","autre",46.687671,-72.72766
"À la Fût, coop de travail brassicole","670 rue Notre-Dame","Saint-Tite","G0X3H0",NA,"www.alafut.qc.ca",1163349567,"Membre COLLECTIF","cooperative-de-travail","fabrication",46.725309,-72.563565
"Alex Legault inc","1200 20e Avenue","Shawinigan","G9T7G9",NA,NA,NA,"Membre COLLECTIF","autre","finance-et-assurances",46.615799,-72.71111
"Chez Grace","591 5e rue de la pointe","Shawinigan","G9T2T3",NA,"restaurantchezgrace.com/chez-grace",NA,"Membre COLLECTIF","obnl-a-volet-marchand","hebergement-et-restauration",46.540525,-72.749264
"LÜDIQ","391 rue principale","Batiscan","G0X1A0",NA,NA,NA,"Membre COLLECTIF","obnl-a-volet-marchand","immobilier-et-location",46.487915,-72.257005
"Comité de Développement Local et Régional FTQ Mauricie et Centre-du-Québec","7080 Rue Marion","Trois-Rivières","G9A6G4",NA,"mauriciecentreqc.ftq.qc.ca",NA,"Partenaire COLLECTIF","autre","autre",46.318298,-72.573679
"Association des proches aidants de l'Énergie","1660 10e avenue","Shawinigan","G9R1N2",NA,"prochesaidantsshawinigan.ca",1174495128,"Membre COLLECTIF","obnl-a-volet-marchand","soins-de-sante-et-assistance-sociale",46.607587,-72.709963
"Atelier Silex","1095 rue Père-Frédéric","Trois-Rivières","G9A3S5",NA,"ateliersilex.org",1142293100,"Membre COLLECTIF","obnl-a-volet-marchand","autre",46.348546,-72.548518
"Bleu forêt, coopérative de communication responsable","151 rue Saint-Pierre","Saint-Élie-de-Caxton","G0X2N0",NA,"bleu-foret.ca",NA,"Membre COLLECTIF","cooperative-de-travail","service-professionnels-scientifiques-techniques",46.489199,-72.959147
"Carrefour d'action bénévole du Haut St-Maurice","539 St-Antoine","La Tuque","G9X2Y5",NA,"www.cabhsm.org",1142088963,"Partenaire COLLECTIF","mrc-mekinac","autre",47.439999,-72.784358
"Corporation de développement communautaire des Chenaux","14 du Bocage","Sainte-Geneviève-de-Batiscan","G0X2R0",NA,"www.cdcdeschenaux.ca",1160900693,"Partenaire COLLECTIF","mrc-mekinac","autre",46.537347,-72.340014
"Corporation de développement communautaire Mékinac","215-301 rue St-Jacques","Sainte-Thècle","G0X3G0",NA,"www.cdcmekinac.org",1147843321,"Partenaire COLLECTIF","obnl-a-volet-marchand","autre",46.818583,-72.504294
"CDC de Shawinigan","520 avenue Broadway","Shawinigan","G9N1M3",NA,"www.cdcshawinigan.ca",1160900818,"Partenaire COLLECTIF","mrc-mekinac","autre",46.541028,-72.743624
"CDEC de Trois-Rivières","310-1060 rue Saint-François-Xavier","Trois-Rivières","G9A1R8",NA,"www.cdectr.ca",1145487188,"Partenaire COLLECTIF","mrc-mekinac","service-professionnels-scientifiques-techniques",46.350433,-72.545267
"Communo-Gym","1060 St-François-Xavier","Trois-Rivières","G9A1R8",NA,"comsep.qc.ca/comsep-1/communo-gym",1163445209,"Membre COLLECTIF","obnl-a-volet-marchand","autre",46.350513,-72.545365
"COOP ETC","444 BOSTONNAIS","La Tuque","G9X2G7",NA,NA,NA,"Membre COLLECTIF","cooperative-de-solidarite","service-denseignement",47.442685,-72.775224
"Coopérative de solidarité Santé Le Rocher","1050 8e Rue","Shawinigan","G9T4L4",NA,"cooplerocher.com",1165708257,"Membre COLLECTIF","cooperative-de-solidarite","soins-de-sante-et-assistance-sociale",46.615653,-72.698851
"Coop Nitaskinan","001-500 avenune Broadway","Shawinigan","G9N1M3",NA,"coopnitaskinan.com",1170798160,"Membre COLLECTIF","cooperative-de-solidarite","service-professionnels-scientifiques-techniques",46.54058,-72.743967
"Coopérative de solidarité Les Grès","202-190 St-Honoré","Saint-Etienne-des-Grès","G0X2P0",NA,NA,NA,"Membre COLLECTIF","cooperative-de-solidarite","immobilier-et-location",46.442927,-72.770441
"Radio Country Pop","47 rue Saint-Thomas","Louiseville","J5V2A3",NA,"www.countrypop.ca",NA,"Membre COLLECTIF","obnl-a-volet-marchand","autre",46.255043,-72.94352
"Centre Roland-Bertrand","1895 avenue Champlain","Shawinigan","G9N0G4",NA,"centrerolandbertrand.com",1143475094,"Membre COLLECTIF","obnl-a-volet-marchand","commerce-de-detail",46.553791,-72.744514
"Corporation de transports collectifs et adaptés de la MRC de Maskinongé","264 avenue St-Laurent","Louiseville","J5V1J9",NA,"www.ctcmaskinonge.org",1161106209,"Membre COLLECTIF","obnl-a-volet-marchand","transport-et-entreposage",46.255859,-72.945343
"Digihub","1250 avenue de la Station","Shawinigan","G9N8K9",NA,"digihub.ca",1169702454,"Partenaire COLLECTIF","obnl-a-volet-marchand","autre",46.545617,-72.749825
"Centre d'action bénévole du Rivage","101-1 rue Fusey","Trois-Rivières","G8T2T2",NA,"cabdurivage.org",1149230337,"Membre COLLECTIF","obnl-a-volet-marchand","commerce-de-detail",46.365687,-72.526862
"Atelier communautaire de la Mauricie ( nom provisoire )","2775 Des Oblattes Missionnaires","Trois-Rivières","G9C0M2",NA,NA,NA,"Membre ÉMERGENCE","cooperative-de-travail","fabrication",46.371012,-72.638465
"Énergie CMB","3550 Rue Marguerite-Seigneuret","Trois-Rivières","G9B0M5",NA,"www.energiecmb.com",1161384582,"Membre COLLECTIF","obnl-a-volet-marchand","autre",46.322634,-72.625698
"Evametric","3835 rue de Cherbourg","Trois-Rivières","G8Y6T2",NA,"www.evametric.com",NA,"Partenaire COLLECTIF","autre","service-professionnels-scientifiques-techniques",46.341701,-72.613768
"Événements LD","210-1640 6e rue","Trois-Rivières","G8Y5B8",NA,"www.evenementsld.com",2275279687,"Citoyen COLLECTIF","autre","service-professionnels-scientifiques-techniques",46.357887,-72.593619
"Atelier et galerie d'art Factrie 701","701 4e rue","Shawinigan","G9T6J3",NA,"www.factrie701.com",1177274165,"Membre COLLECTIF","mrc-mekinac","autre",46.616796,-72.691021
"GRT des Deux Rives","140 Rue Hériot","Drummondville","J2C1J8",NA,NA,1149547581,"Partenaire COLLECTIF","obnl-a-volet-marchand","immobilier-et-location",45.886481,-72.490858
"Faciliter l'écologie par les Partenaire et l'Innovation","1-3488 Place Marcelle Ferron","Trois-Rivières","G8Z3G9",NA,NA,NA,"Membre ÉMERGENCE","obnl-a-volet-marchand","autre",46.343267,-72.573118
"Festival de la galette sarrasin de Louiseville inc.","790 Rue du Golf","Trois-Rivières","G8W2J2",NA,"www.festivalsarrasin.com",NA,"Membre COLLECTIF","autre","autre",46.394414,-72.598604
"Flore Sauvage Coopérative Brassicole","3521 chemin de Sainte-Flore","Shawinigan","G9T1A6",NA,"floresauvage.com",1176837319,"Membre COLLECTIF","cooperative-de-travail","autre",46.613941,-72.737502
"Festival Western de St-Tite","107-581 rue St-Paul","Saint-Tite","G0X3H0",NA,"fwst.ca",1142374173,"Membre COLLECTIF","obnl-a-volet-marchand","autre",46.727695,-72.564289
"Moisson Mauricie / Centre-du-Québec","1579 rue Laviolette","Trois-Rivières","G9A1W5",NA,"www.moisson-mcdq.org",1142392787,"Membre COLLECTIF","mrc-mekinac","autre",46.353473,-72.551308
"SIT-Mauricie","1090 DeLaVérendrye","Trois-Rivières","G9A2S8",NA,"sitmauricie.com",NA,"Membre COLLECTIF","obnl-a-volet-marchand","soins-de-sante-et-assistance-sociale",46.339633,-72.554544
"HBSA","14635 rue des Mahonias","Bécancour","G9H0W1",NA,NA,NA,"Citoyen COLLECTIF","autre","autre",46.331544,-72.509158
"IDÉ TR","370 rue des Forges","Trois-Rivières","G9A2H1",NA,"idetr.com",NA,"Partenaire COLLECTIF","obnl-a-volet-marchand","service-professionnels-scientifiques-techniques",46.342321,-72.543279
"Intentionelle","403 carré jean garnier","Trois-Rivières","G9B1C8",NA,NA,NA,"Membre ÉMERGENCE","obnl-a-volet-marchand","service-professionnels-scientifiques-techniques",46.309166,-72.588274
"Les Sages Fous","80 rue Saint-François-Xavier","Trois-Rivières","G9A0A6",NA,"www.sagesfous.com",1148328249,"Membre COLLECTIF","obnl-a-volet-marchand","industrie-de-linformation-et-industrie-culturelle",46.34342,-72.536725
"Aide Chez Soi Coop d'aide à domicile de la MRC de Maskinongé","760 boul. Saint-Laurent Est","Louiseville","J5V1H9",NA,"cadmaski.com",NA,"Membre COLLECTIF","cooperative-de-consommateurs","autre",46.25776,-72.918795
"Stratégie Carrière","310-7175 Rue Marion","Trois-Rivières","G9A5Z9",NA,"www.strategiecarriere.com",1147831383,"Partenaire COLLECTIF","mrc-mekinac","service-professionnels-scientifiques-techniques",46.325362,-72.580351
"Centre Shambala","3562 Rue Trudel","Shawinigan","G9N6R7",NA,NA,NA,"Membre ÉMERGENCE","obnl-a-volet-marchand","autre",46.567777,-72.760495
"Développement Mauricie","1243 rue Hart","Trois-Rivières","G9A4S4",NA,NA,1163785091,"Partenaire COLLECTIF","mrc-mekinac","autre",46.343406,-72.541687
"La Bourgade, coop de Solidarité","1461 3rang","Saint-Luc-de-Vincennes","G0X3K0",NA,"www.facebook.com/labourgadecoop",1179157699,"Membre COLLECTIF","cooperative-de-solidarite","autre",46.4959,-72.419486
"La Brouette","493 rue Ste-Julie","Trois-Rivières","G9A1X4",NA,"www.labrouette.ca",2263801989,"Membre COLLECTIF","obnl-a-volet-marchand","autre",46.345469,-72.543436
"Les Villages Étudiants inc (Camp et Auberge du Lac en Coeur)","858 rue Laviolette","Trois-Rivières","G9A5J1",NA,"www.camplacencoeur.qc.ca",NA,"Membre COLLECTIF","mrc-mekinac","autre",46.349071,-72.544762
"Coop Aux berges du Lac Castor","3800 rue des Alumettes","Saint-Paulin","J0K3G0",NA,"www.laccastor.com",1147555271,"Membre COLLECTIF","cooperative-de-travail","hebergement-et-restauration",46.443677,-73.034349
"La Criaillerie","1623 avenue Saint-Marc","Shawinigan","G9N5E3",NA,"lacriaillerie.ca",NA,"Membre ÉMERGENCE","obnl-a-volet-marchand","industrie-de-linformation-et-industrie-culturelle",46.551321,-72.745612
"Le Bon Citoyen","45 Rue Fusey","Trois-Rivières","G8T2T6",NA,"www.leboncitoyen.org",1142458521,"Membre COLLECTIF","obnl-a-volet-marchand","autre",46.364352,-72.528935
"Les Horizons ouverts","7750 Boulevard Des Hêtres","Shawinigan","G9N4X4",NA,"leshorizonsouverts.com",1161146619,"Membre COLLECTIF","obnl-a-volet-marchand","commerce-de-detail",46.583446,-72.715473
"Les Diplomates","114 Place Pruneau","Shawinigan","G9P1A2",NA,"lesdiplomates.org",1163675946,"Membre ÉMERGENCE","obnl-a-volet-marchand","industrie-de-linformation-et-industrie-culturelle",46.525011,-72.73673
"Les terres du possible - MRC de CHENAUX","630 rue Principale","Saint-Luc-de-Vincennes","G0X3K0",NA,"www.lesterresdupossible.ca",NA,"Partenaire COLLECTIF","autre","agriculture-foresterie-peche-et-chasse",46.496996,-72.420015
"Centre Ressources Naissance de la Mauricie - Rive-Sud","690 boul. des Récollets","Trois-Rivières","G8Z3V9",NA,"www.ressourcesnaissance.ca",NA,"Membre COLLECTIF","obnl-a-volet-marchand","autre",46.361643,-72.568398
"Groupe Voix de Femmes","1210 chemin Principal","Saint-Mathieu-du-Parc","G0X1N0",NA,"facebook.com/voixfemmestradition",NA,"Membre COLLECTIF","obnl-a-volet-marchand","autre",46.602149,-72.869765
"Coopérative de Solidarité du marché public de shawinigan","2093 AV CHAMPLAIN","Shawinigan","G9N2L3",NA,NA,1164900699,"Membre COLLECTIF","cooperative-de-solidarite","autre",46.554563,-72.743178
"Maina (Maison d'accueil et d'intégration pour les nouvelles arrivantes)","204-240 rue des Forges","Trois-Rivières","G9A2G8",NA,NA,NA,"Membre ÉMERGENCE","obnl-a-volet-marchand","autre",46.811972,-71.350684
"Coop Nourricière","730 rue Saint-Joseph","Saint-Barnabé","G0X2K0",NA,"www.facebook.com/CoopNourriciere",1178612330,"Membre COLLECTIF","cooperative-de-solidarite","agriculture-foresterie-peche-et-chasse",46.393264,-72.877837
"Café Boutchoux","1121 rue Louis-de-France","Trois-Rivières","G8T1A5",NA,NA,NA,"Membre ÉMERGENCE","cooperative-de-solidarite","autre",46.428501,-72.588621
"MRC de Maskinongé","651 boul. Saint-Laurent Est","Louiseville","J5V1J1",NA,"mrcmaskinonge.ca",NA,"Partenaire COLLECTIF","autre","service-professionnels-scientifiques-techniques",46.257837,-72.922992
"Club Multivoile 4 saisons","2920 Boul Nérée-Beauchemin","Trois-Rivières","G8Z1B4",NA,"www.multivoile.com",1143822824,"Membre COLLECTIF","obnl-a-volet-marchand","autre",46.363433,-72.570688
"Lumina Stratégies","450 23e avenue est","Shawinigan","G9T7A3",NA,"luminastrategies.ca",2271285670,"Citoyen COLLECTIF","autre","service-professionnels-scientifiques-techniques",46.6249,-72.70202
"Oasis - Agriculture Urbaine","323-253 3e Rue de la Pointe","Shawinigan","G9N1H5",NA,"www.facebook.com/ProjetOasisShawinigan",1179154860,"Membre ÉMERGENCE","obnl-a-volet-marchand","agriculture-foresterie-peche-et-chasse",46.539137,-72.747783
"Université du Québec à Trois-Rivières","3351 boulevard des Forges","Trois-Rivières","G9A5H7",NA,"uqtr.ca",1143874817,"Partenaire COLLECTIF","autre","autre",46.348038,-72.57778
"Tardif, Stratégies d'affaires","506 rue Bonaventure","Trois-Rivières","G9A2B4",NA,"www.patricetardif.com",2274559410,"Partenaire COLLECTIF","autre","service-professionnels-scientifiques-techniques",46.34439,-72.544157
"Plein Air Ville-Joie","11-441 Notre-Dame Ouest","Trois-Rivières","G9B6W5",NA,"ville-joie.com",1146554531,"Membre COLLECTIF","obnl-a-volet-marchand","hebergement-et-restauration",46.282138,-72.678275
"Route Douze","1781 P. Dizy-Montplaisir","Trois-Rivières","G8V0H3",NA,"www.routedouze.com",NA,"Membre ÉMERGENCE","obnl-a-volet-marchand","service-denseignement",46.399056,-72.530658
"SAMBBA OBV Batiscan-Champlain","211 rue de l'Église","Sainte-Geneviève-de-Batiscan","G0X2R0",NA,"www.sambba.qc.ca",NA,"Membre COLLECTIF","obnl-a-volet-marchand","service-professionnels-scientifiques-techniques",46.534739,-72.341161
"Sourire Mobile Mauricie","125-1060 rue St-François-Xavier","Trois-Rivières","G9A1R8",NA,"souriremobile",1174399668,"Partenaire COLLECTIF","obnl-a-volet-marchand","soins-de-sante-et-assistance-sociale",46.350433,-72.545267
"Aide Chez Soi des Chenaux","44 chemin Rivière-à-Veillet","Ste-Geneviève-de-Batiscan","G0X2R0",NA,"www.aidechezsoideschenaux.com",NA,"Membre COLLECTIF","obnl-a-volet-marchand","soins-de-sante-et-assistance-sociale",46.539736,-72.341331
"Table de concertation du mouvement des femmes de la Mauricie","315-1060 rue St-François-Xavier","Trois-Rivières","G9A1R8",NA,"tcmfm.ca",1145073905,"Partenaire COLLECTIF","mrc-mekinac","autre",46.350433,-72.545267
"Transport Adapté du Comté de Maskinongé","624 rue Dalcourt","Louiseville","J5V2Z6",NA,"www.tacm82.org",1143539626,"Membre COLLECTIF","mrc-mekinac","transport-et-entreposage",46.261458,-72.954223
"Un pour tous","1586 rue Louis-de-France","Trois-Rivières","G8W2C2",NA,NA,1176881242,"Membre ÉMERGENCE","cooperative-de-solidarite","service-professionnels-scientifiques-techniques",46.437183,-72.575667
"La Ruche Québec","301-1220 boulevard Lebourgneuf","Québec","G2K2G4",NA,"laruchequebec.com",1165893182,"Partenaire COLLECTIF","obnl-a-volet-marchand","finance-et-assurances",46.834637,-71.29944
"Ville de La Tuque","323 rue St-François","La Tuque","G9X1S2",NA,"www.ville.latuque.qc.ca",8831855885,"Partenaire COLLECTIF","autre","autre",47.437561,-72.783672
"Service de développement artistique interculturel Voix de Pasaj","127 rue Radisson","Trois-Rivières","G9A2C5",NA,"www.facebook.com/Voixdepasaj",1178069440,"Membre COLLECTIF","obnl-a-volet-marchand","autre",46.342573,-72.540543
"Constantia (Service d'intervention de proximité en milieu familial)","5-25 rue de Boucherville","Trois-Rivières","G8W1E8",NA,NA,NA,"Membre ÉMERGENCE","autre","soins-de-sante-et-assistance-sociale",46.369826,-72.562039
"La Zone entrepreneuriale","445 rue des Volontaires","Trois-Rivières","G9A2E7",NA,"lazoneentrepreneuriale.ca",NA,"Partenaire COLLECTIF","autre","service-professionnels-scientifiques-techniques",46.343071,-72.54468
