"NEQ","NomEntreprise","Adresse","Municipalite","Adresse_Lign3","CodePostal","SecteurActivite","FormeJuridique","lat","long"
1140139735,"ORGANISATION DES TERRAINS DE JEUX ET DE LOISIRS DE ST-ROCH-DE-MÉKINAC","1216 rue Principale","Saint-Roch-de-Mékinac (Québec)",NA,"G0X2E0","ORGANISER DES JEUX POUR PETITS ET GRAND BÉNÉVOLEMENT","APE",46.811277,-72.768774
1140176141,"SOCIÉTÉ D'HABITATION COMMUNAUTAIRE DU CENTRE DU QUÉBEC","897 rue Saint-Pierre","Trois-Rivières (Québec)",NA,"G9A4W5","RÉSIDENCE PERSONNES ÂGÉES","APE",46.343491,-72.539014
1140191793,"CENTRE DE LA PETITE ENFANCE L'ARBRE ENCHANTÉ","455 rue des Vétérans","Trois-Rivières (Québec)",NA,"G8T2W8","SERVICE DE GARDE À L'ENFANCE","APE",46.377324,-72.50983
1140339996,"ASSOCIATION CHASSE ET PÊCHE BORDURE DU PARC","131 rue des Merisiers","Notre-Dame-du-Mont-Carmel (Québec)",NA,"G0X3J0","PROMOUVOIR LA CHASSE","APE",46.446758,-72.72215
1140384190,"CLUB LOA","1895 rue Groulx","Trois-Rivières (Québec)",NA,"G8Y5S1","LOISIRS - CHASSE & PÊCHE","APE",46.370225,-72.618934
1140326670,"FONDATION DU COLLÈGE SHAWINIGAN","2263 av. du Collège","Shawinigan (Québec)",NA,"G9N6V8","OEUVRER À TITRE D'ORGANISME DE CHARITÉ RECONNU","APE",46.564126,-72.7528
1140875007,"LES PRODUCTIONS THÉÂTRALES TGP","70 rue Langelier","Trois-Rivières (Québec)",NA,"G8W1S9","PROMOUVOIR LE THÉÂTRE AMATEUR DANS LA RÉGION DE TROIS-RIVIÈRES","APE",46.375917,-72.572008
1140885568,"C.P.E. SAUTE-MOUTON INC.","3525, BOUL. LAVIOLETTE","TROIS-RIVIÈRES (QUÉBEC)",NA,"G8Z1E9","SERVICE DE GARDE EDUCATIFS POUR LES ENFANTS 0-5 ANS EN INSTALLATIONS","APE",46.35955,-72.569517
1140844490,"FONDATION DU MUSÉE QUÉBÉCOIS DE CULTURE POPULAIRE","200 rue Laviolette","Trois-Rivières (Québec)",NA,"G9A6L5","FONDATION","APE",46.344564,-72.540354
1140847824,"CLUB DE L'ÂGE D'OR DE ST-MATHIEU-DU-PARC","1791 ch. Principal","Saint-Mathieu-du-Parc (Québec)",NA,"G0X1N0","BASEBALL-POCHE TOUS LES VENDREDIS (EXCEPTÉ JUILLET ET AOÛT), Scrabble","APE",46.572854,-72.923029
1140814063,"CENTRE D'ASSISTANCE ET D'ACCOMPAGNEMENT AUX PLAINTES - MAURICIE ET CENTRE-DU-QUÉBEC","100-7175 rue Marion","Trois-Rivières (Québec)",NA,"G9A5Z9","Aide aux plaignants (contre établissements de santé ou services sociaux)","APE",46.325362,-72.580351
1141105917,"Facile d'accès La Tuque","630 RUE Réal","La Tuque (Québec)",NA,"G9X2R9","Centre de jour pour ceux qui séjournent ou ont séjourné en psychiatrie","APE",47.436671,-72.780318
1141086745,"SYNDICAT DU PERSONNEL PROFESSIONNEL DE L'UNIVERSITÉ DU QUÉBEC À TROIS-RIVIÈRES","3351 boul. des Forges","Trois-Rivières (Québec)",NA,"G8Z4M3","SYNDICAT D'EMPLOYÉS PROFESSIONNELS, DÉFENSE DES DROITS DES MEMBRES","APE",46.348038,-72.57778
1141088840,"CENTRE L'ÉTAPE DU BASSIN DE MASKINONGÉ INC.","134, AVENUE SAINT-LAURENT","LOUISEVILLE (QUÉBEC)",NA,"J5V1J7","PRÉVENIR ET COMBATTRE LES PROBLÈMES RELIÉS À LA TOXICOMANIE","APE",46.255989,-72.94301
1141039280,"CENTRE NATIONAL EN ÉLECTROCHIMIE ET EN TECHNOLOGIES ENVIRONNEMENTALES INC","2263 av. du Collège","Shawinigan (Québec)",NA,"G9N6V8","RECHERCHE","APE",46.564126,-72.7528
1141091737,"CORPORATION DU PONT RIVIÈRE-AUX-RATS","375 rue Saint-Joseph","La Tuque (Québec)",NA,"G9X1L5","GESTION ET ENTRETIEN D'UN PONT À PÉAGE","APE",47.440711,-72.781489
1141040395,"CENTRE DE LA PETITE ENFANCE FLOCONS DE RÊVE INC.","1875 rue Notre-Dame","Saint-Maurice (Québec)",NA,"G0X2X0","CENTRE DE LA PETITE ENFANCE (MILIEU FAMILIAL ET INSTALLATION)","APE",46.47458,-72.540667
1141045642,"LES ESTACADES DE TROIS-RIVIÈRES","260 rue Dessureault","Trois-Rivières (Québec)",NA,"G8T9T9","Nous faisons la gestion d'une équipe de hockey de calibre Midget AAA.","APE",46.378551,-72.527097
1141126004,"F.A.I.R.E. (FAMILLES D'APPUI ET INTERVENTION POUR UN RÉSEAU D'ENTRAIDE)","1209 PL Georges H. Robichon","Trois-Rivières (Québec)",NA,"G8Y2L1","RESSOURCE D'ENTRAIDE POUR LES FAMILLES AYANT DES ENFANTS 0-17 ANS.","APE",46.356416,-72.57755
1141006891,"CLUB DE CHASSE ET DE PÊCHE PATRICIA INC.","380 rue des Pétunias","Trois-Rivières (Québec)",NA,"G8V1C9","RÉCRÉATION - PLEIN AIR / CHASSE - PÊCHE","APE",46.383741,-72.49699
1141009630,"LES AUXILIAIRES DES PAUVRES DE SAINT-FRANÇOIS","425 rue Sainte-Angèle","Trois-Rivières (Québec)",NA,"G9A1M3","SOUTIEN D'OEUVRE RELIGIEUSE, SERVICES SOCIAUX DIVERS","APE",46.347116,-72.538911
1141010828,"Association des proches aidants de Trois-Rivières inc.","79 rue Rocheleau","Trois-Rivières (Québec)",NA,"G8T5A4","Aide aux aidants naturels dont le patient est en perte d'autonomie SERVICE DE GARDIENNAGE-RÉPIT","APE",46.367731,-72.504797
1141016262,"CLUB SOCIAL KRUGER TROIS-RIVIÈRES INC.","3735 boul. Gene-H.-Kruger","Trois-Rivières (Québec)",NA,"G9A6B1","ACTIVITÉS SOCIALES","APE",46.329002,-72.55744
1141302167,"ASSOCIATION NATURE INC.","102 CH. De La Matawin","Trois-Rives (Québec)",NA,"G0X2C0","Entreprise à but non lucratif dans le secteur de la chasse et la pêche","APE",46.905276,-72.933917
1141304122,"CARMEL LA SAUTERELLE","200 rue Saint-Honoré","Saint-Étienne-des-Grès (Québec)",NA,"G0X2P0","SERVICE DE GARDE POUR ENFANTS 0 À 5 ANS","APE",46.442503,-72.770396
1141486275,"MUSÉE QUÉBÉCOIS DE CULTURE POPULAIRE","200 rue Laviolette","Trois-Rivières (Québec)",NA,"G9A6L5","MUSÉE","APE",46.344564,-72.540354
1141283904,"ACCUEIL MISSIONNAIRE DES FILLES DE JÉSUS","2392 8e Avenue","Trois-Rivières (Québec)",NA,"G8Z3L8","RELIGION","APE",46.355414,-72.559261
1141401555,"CLUB DES FRANCS AMIS","310 rue Patry","Trois-Rivières (Québec)",NA,"G8T8B7","CHASSE ET PÊCHE","APE",46.37832,-72.521426
1141289604,"Parkinson Centre-du-Québec.Mauricie Inc.","30-10 rue Duplessis","Trois-Rivières (Québec)",NA,"G8T9T4","Offrir des services et des acticités aux personnes atteintes de  la maladie de Parkinson ainsi qu'à leur proche aidant, leur famille et amis. Informer le grand public à la maladie de Parkinson.","APE",46.365061,-72.532875
1141440926,"ÉCOLE DE HOCKEY NATIONAL INC.","103-1675 rue Notre-Dame Centre","Trois-Rivières (Québec)",NA,"G9A6B2","Promouvoir le sport amateur et offrir une aide financière aux athlètes","APE",46.336117,-72.544972
1141441395,"PUBLICATIONS FRANÇAISES EA (PFEA) INC.","701 RUE Thibeau","CP 33002","Trois-Rivières (Québec)","G8T9T8","TRADUIRE EN FRANÇAIS","APE",46.386945,-72.544351
1141212770,"CLUB DE MARCHE MOI MES SOULIERS","1070 rue de Paris","Trois-Rivières (Québec)",NA,"G8W0B7","Randonnées de plein air, raquette","APE",46.383514,-72.564447
1141212978,"ASSOCIATION POUR LE DÉVELOPPEMENT DE L'ENSEIGNEMENT ET DE LA RECHERCHE EN ADMINISTRATION DE L'ÉDUCATION (ADERAE)","3351 BOUL. des Forges","CP C.P. 500","Trois-Rivières (Québec)","G9A5H7","PROMOUVOIR L'ENSEIGNEMENT ET LA RECHERCHE","APE",46.348038,-72.57778
1141271669,"REVUE QUÉBECOISE DE PSYCHOLOGIE","3351 BOUL. des Forges","CP 500","Trois-Rivières (Québec)","G9A5H7","ÉDITION ET PUBLICATION D'UNE REVUE SCIENTIFIQUE EN PSYCHOLOGIE","APE",46.348038,-72.57778
1141273822,"CLUB DE SKI DE FOND LE ROCHER","1 chemin du Golf","CP 10083","Shawinigan (Québec)","G9T5K7","Organiser pistes ski randonnée dans golf de Grand-Mère pour enfant + pistes raquettes","APE",46.623329,-72.687921
1141222720,"LE CENTRE DE LA PETITE ENFANCE DES EMPLOYÉS DU CENTRE HOSPITALIER RÉGIONAL DE TROIS-RIVIÈRES","3140 rue Louis-Pasteur","Trois-Rivières (Québec)",NA,"G8Z4E3","GARDERIE POUR ENFANTS","APE",46.354364,-72.56468
1141223231,"COOPÉRATIVE UNIVERSITAIRE DE TROIS-RIVIÈRES","3351 boul. des Forges","Trois-Rivières (Québec)",NA,"G8Z4M3","LIBRAIRIE, PAPETERIE","COP",46.348038,-72.57778
1141148222,"TOURNOI DE HOCKEY DES POLICIERS PROVINCIAUX DU QUÉBEC","290 rue François-Duclos","Trois-Rivières (Québec)",NA,"G8T5E8","ORGANISER TOURNOI DE HOCKEY DE POLICIERS (UNE FIN DE SEMAINE PAR AN-AVRIL)","APE",46.373146,-72.512939
1141259391,"CORPORATION INTER-RIVES DE LA GABELLE INC.","1230 rue Principale","Saint-Étienne-des-Grès (Québec)",NA,"G0X2P0","GESTION ET CONSERVATION DU PARC NATURE LA GABELLE ORGANISATION ET PROMOTION D'ACTIVITÉS CULTURELLES","APE",46.440414,-72.773026
1141152562,"LES OEUVRES DES ABBÉS MARTEL ET MARCIL","2213 AVE Saint-Marc","Shawinigan (Québec)",NA,"G9N2J4","SERVICE D'AIDE ET ACCOMPAGNEMENT AUX FAMILLES PAUVRES SPÉCIALEMENT AUX ENF.","APE",46.554794,-72.740986
1141798968,"LES FAMILLES PAGÉ D'AMÉRIQUE","1660, RUE PRINCIPALE, C.P. 35","NOTRE-DAME-DU-MONT-CARMEL (QUÉBEC)",NA,"G0X3J0","SOLLICITER DES MEMBRES, FAIRE LA PROMOTION, GÉNÉALOGIE - JOURNAL ...","APE",46.488572,-72.653719
1141800301,"LE GYROSCOPE DU BASSIN DE MASKINONGÉ","103-391 av. Saint-Laurent","Louiseville (Québec)",NA,"J5V1K4","Support aux familles et amis de la personne atteinte de maladie mentale","APE",46.255113,-72.948489
1141760109,"CORPORATION DES JARDINS FORESTIERS DE ST-STANISLAS P.Q.","953 rue Principale","Saint-Stanislas (Québec)",NA,"G8L7B4","AMÉNAGEMENT DU TERRITOIRE PÉRIPHÉRIQUE DE ST-STANISLAS","APE",49.005269,-72.177007
1141737016,"SYNDICAT CANADIEN DE LA FONCTION PUBLIQUE, SECTION LOCALE 1800 - (UNIVERSITÉ DU QUÉBEC À TROIS-RIVIÈRES - SOUTIEN)","3351 BOUL. Des Forges","Trois-Rivières (Québec)",NA,"G9A5H7","NÉGOCIATION, APPLICATION DE CONVENTION COLLECTIVE","APE",46.348038,-72.57778
1141750233,"CONSEIL RÉGIONAL FTQ MAURICIE ET CENTRE-DU-QUÉBEC","101-7080 rue Marion","Trois-Rivières (Québec)",NA,"G9A6G4","ÉTUDE, DÉFENSE ET DÉVELOPPEMENT DES INTÉRÊTS ÉCONOMIQUES, SOCIAUX, MORAUX","APE",46.325362,-72.580351
1141966474,"RÉSIDENCE ""ENTRE-DEUX""","1355 rue des Cyprès","Trois-Rivières (Québec)",NA,"G8Y0G5","HÉBERGEMENT","APE",46.356245,-72.580578
1141887670,"COOPÉRATIVE D'UTILISATION DE MACHINERIE AGRICOLE DE MATAPÉDIA","149 rang de l'Église","Saint-Léon-le-Grand (Québec)",NA,"G0J2W0","MACHINERIE EN COMMUN COOPÉRATIVE","COP",48.356989,-67.490174
1141911967,"ProLoge Immobilier","211-3675 boul. du Chanoine-Moreau","Trois-Rivières (Québec)",NA,"G8Y5M6","GESTION D'ORGANISME À BUT NON LUCRATIF","APE",46.359865,-72.586593
1141891631,"ASSOCIATION DU SECTEUR DES CHENAUX INC.","1351 rue Jean-Nicolet","Trois-Rivières (Québec)",NA,"G9A1B3","VIE DE QUARTIER, PROTECTION DE L'ENVIRONNEMENT","APE",46.356701,-72.542615
1142066753,"CLUB AGE D'OR DE NOTRE-DAME-DU-MONT-CARMEL INC.","931 rang Saint-Flavien","Notre-Dame-du-Mont-Carmel (Québec)",NA,"G0X3J0","CLUB ÂGE D'OR DE NOTRE-DAME-DU MONT-CARMEL","APE",46.471992,-72.674928
1142081752,"CLUB DE L'AGE D'OR DE MASKINONGÉ","11 rue Marcel","Maskinongé (Québec)",NA,"J0K1N0","RENCONTRES HEBDO. POUR JEUX CARTE, BASEBALL, ARTISANAT COURS DE DANSE ETC..","APE",46.226237,-73.018356
1142094581,"L'ACCORD MAURICIE INC.","991 rue Champflour","Trois-Rivières (Québec)",NA,"G9A1Z8","TRAITEMENT PSYCHOLOGIQUE / FORMATION","APE",46.347964,-72.548766
1142067355,"COMITE DE PROTECTION DES OEUVRES D'OZIAS LEDUC DE SHAWINIGAN-SUD INC.","825 av. Ozias-Leduc","Shawinigan (Québec)",NA,"G9P1E1","CULTURELLE, TOURISTIQUE","APE",46.527484,-72.750027
1142067660,"CLUB ENFIN","3920 rue Dompierre","Trois-Rivières (Québec)",NA,"G8Y4Y6","CLUB DE CHASSE ET PÊCHE","APE",46.347628,-72.605992
1142082826,"FONDATION POPULAIRE MAURICIE","2065 rue d'Oslo","Trois-Rivières (Québec)",NA,"G8W0G6","Aide aux sportifs et artistes","APE",46.389584,-72.560488
1142082875,"GALERIE D'ART DU PARC INC.","864 rue des Ursulines","Trois-Rivières (Québec)",NA,"G9A5C1","CENTRE D'EXPOSITION ET D'ARCHIVES","APE",46.342929,-72.538486
1142082982,"ASSOCIATION DU BASEBALL MINEUR DE CAP-DE-LA-MADELEINE INC.","200, RUE DE GRANDMONT","TROIS-RIVIÈRES (QUÉBEC)",NA,"G8T2R4","PROMOUVOIR LA PRATIQUE DES SPORTS EN PARTICULIER LE BASEBALL CHEZ LES JEUNE","APE",46.372938,-72.523011
1142095497,"ASSOCIATION DES POURVOYEURS ET PÊCHEURS DU POISSON DES CHENAUX DE LA RIVIÈRE STE-ANNE INC.","8 rue Marcotte","Sainte-Anne-de-la-Pérade (Québec)",NA,"G0X2J0","PROMOUVOIR L'INDUSTRIE TOURISTIQUE; DÉFENDRE LES DROITS DES POURVOYEURS","APE",46.571419,-72.205309
1142111542,"MAISON DES FAMILLES DE MÉKINAC","261 rue du Moulin","Saint-Tite (Québec)",NA,"G0X3H0","Promouvoir et soutenir le bien-être des familles du territoire Mékinac dans les différentes étapes de la vie.","APE",46.72748,-72.56809
1142068080,"GROUPE DE RECHERCHE ET D'EXPÉRIMENTATION SUR LA QUALITÉ DE LA VIE ET DE L'ENVIRONNEMENT HUNTERSTOWN","3721 Grande Ligne","Saint-Paulin (Québec)",NA,"J0K3G0","CONSULTANT EN ENVIRONNEMENT - HÉBERGEMENT DES MEMBRES","APE",46.460943,-73.007677
1142069179,"COMITÉ DES LOISIRS DE VERMILLON","2419 Route 155 S","La Tuque (Québec)",NA,"G9X3N8","SERVICES FORESTIERS","APE",47.213071,-72.88836
1142112649,"ASSOCIATION DES PERSONNES HANDICAPÉES ACTIVES DE MÉKINAC","210-301 rue Saint-Jacques","Sainte-Thècle (Québec)",NA,"G0X3G0","- Informer et sensibiliser la population aux besoins des personnes vivant en situation d'handicap. - Soutenir et encourager les personnes handicapées au niveau récréatif, éducatif et social.","APE",46.818583,-72.504294
1142070771,"TECHNOSCIENCE MAURICIE-CENTRE-DU-QUÉBEC","3351 boul. des Forges","Trois-Rivières (Québec)",NA,"G8Z4M3","ACTIVITÉ DE LOISIR SCIENTIFIQUE","APE",46.348038,-72.57778
1142085381,"GESTION DE LA RIVIERE AUX P'TITS POISSONS DES CHENAUX","8 rue Marcotte","Sainte-Anne-de-la-Pérade (Québec)",NA,"G0X2J0","Gestion de l'exploitation de la pêche au poulamon; promotion","APE",46.571419,-72.205309
1142070896,"ASSOCIATION DES TRAPPEURS DE REGION MAURICIE/BOIS-FRANCS","680 rue Maurice-Paquin","Trois-Rivières (Québec)",NA,"G8W2H1","Regrouper et informer les trappeurs sur les questions qui les concernent","APE",46.416473,-72.565989
1142071423,"CENTRE RÉGIONAL DE SERVICES AUX BIBLIOTHÈQUES PUBLIQUES (CRSBP) DU CENTRE-DU-QUÉBEC, DE LANAUDIÈRE ET DE LA MAURICIE INC.","3125 rue Girard","Trois-Rivières (Québec)",NA,"G8Z2M4","CENTRE RÉGIONAL DE SERVICES AUX BIBLIOTHÈQUES PUBLIQUES, VENTE DE SERVICES Services techniques centralisés","APE",46.34085,-72.57342
1142114579,"FONDATION RICHELIEU DU CAP- DE-LA-MADELEINE INC.","125 rue Chauveau","Trois-Rivières (Québec)",NA,"G8T8H3","FONDATION CHARITABLE","APE",46.389474,-72.548177
1142071795,"CLUB OPTIMISTE ST-LOUIS-DE-FRANCE","930 rue des Harfangs","Trois-Rivières (Québec)",NA,"G8V2V2","AIDE À LA JEUNESSE","APE",46.399026,-72.544229
1142100248,"MOUVEMENT ACTION-CHÔMAGE TROIS-RIVIÈRES","1322 rue Sainte-Julie","Trois-Rivières (Québec)",NA,"G9A1Y6","SERV. PRÉVENTION CONCERNANT LOI ASS-CHÔMAGE ACTIVITÉ SENSIBILISATION PUBLIC","APE",46.351176,-72.549878
1142072975,"COMITÉ DE DÉVELOPPEMENT DE ST-LÉON","279 rue Plourde","Saint-Léon-le-Grand (Québec)",NA,"G0J2W0","INFORMATION ET ANIMATION ACTEURS ÉCONOMIQUES - DÉMARRAGE D'ENTREPRISES","APE",48.379954,-67.50646
1142073726,"CLUB DE RÉCRÉATION DE ST-GEORGES DE CHAMPLAIN","650 206e Avenue","Shawinigan (Québec)",NA,"G9T3K3","RÉCRÉATIVES","APE",46.626824,-72.654979
1142073882,"ASSOCIATION DE BASEBALL MINEUR DE TROIS-RIVIÈRES OUEST","6451 RUE Notre-Dame O","CP G9A 3B9","Trois-Rivières (Québec)","G9A3B9","Développer l'intérêt des jeunes pour le baseball; services connexes","APE",46.316537,-72.569535
1142088831,"CLUB DE L'AGE D'OR DE ST- ALEXIS-DES-MONTS","31 rue Saint-Olivier","Saint-Alexis-des-Monts (Québec)",NA,"J0K1V0","VIE ACTIVE, VOYAGE GROUPER DU MOIS, SOUPER DU MOIS, QUELQUES DANSES BINGO, POCHES, SAC DE SABLE, BILLARD","APE",46.463631,-73.144976
1142088930,"ASSOCIATION DES PROFESSEURS RÉGULIERS RETRAITÉS DE L'UNIVERSITÉ DU QUÉBEC A TROIS-RIVIÈRES","3351 BOUL. Des Forges","Trois-Rivières (Québec)",NA,"G8Z4M3","ASSOCIATION, CLUB SOCIAL ET CULTUREL","APE",46.348038,-72.57778
1142073965,"CLUB DE L'ÂGE D'OR LA TUQUE INC.","500 rue Lucien-Filion","La Tuque (Québec)",NA,"G9X4E7","-","APE",47.439769,-72.781739
1142088963,"CARREFOUR D'ACTION BÉNÉVOLE DU HAUT ST-MAURICE","539 rue Saint-Antoine","La Tuque (Québec)",NA,"G9X2Y5","Recruter, former et orienter les bénévoles; offrir des services bénévoles","APE",47.439999,-72.784358
1142089177,"CLUB RÉCRÉATIF DES AÎNÉS DE ST-ANDRÉ SHAWINIGAN-SUD INC.","1490 117e Rue","Shawinigan (Québec)",NA,"G9P3E1","GROUPER EN CORP. LES PERS. AGÉES DE ST-ANDRÉ, PROMOUVOIR LA SANTÉ, ETC.","APE",46.51792,-72.754819
1142105098,"SOCIÉTÉ ST-JEAN BAPTISTE DE LA MAURICIE","3239 rue Papineau","Trois-Rivières (Québec)",NA,"G8Z1P4","Éducation sociale et politique; organisation de la fête nationale","APE",46.353798,-72.569013
1142091140,"QUADRATHLON ITF QUÉBEC","1112 rue Lepage","Trois-Rivières (Québec)",NA,"G8V1L7","ENCADREMENT ET FAIRE PROMOTION DU TAEKWON-DO I.T.F. AU QUÉBEC","APE",46.393803,-72.555476
1142063156,"FESTIVAL DE LA TRUITE MOUCHETEE DE ST-ALEXIS DES MONTS INC.","30 rue Saint-Olivier","Saint-Alexis-des-Monts (Québec)",NA,"J0K1V0","ORGANISME À BUT NON LUCRATIF: PÊCHE, LOISIR","APE",46.462789,-73.143548
1142107193,"Centre Le PONT","925, RUE LAVIOLETTE, 2E ÉTAGE","TROIS-RIVIÈRES (QUÉBEC)",NA,"G9A1V9","DONNER DES SESSIONS DE FORMATION POUR LES FEMMES EN RECHERCHE D'EMPLOI NOUS SOMMES UN ORGANISME SANS BUT LUCRATIF / AIDE AUX FEMMES EN DIFFICULTÉ","APE",46.343525,-72.539352
1142063990,"CLUB AGE D'OR SAINT-SEVERE","59B rue Principale","Saint-Sévère (Québec)",NA,"G0X3B0","CLUBS D'ÂGE D'OR","APE",46.346849,-72.898196
1142092916,"CENTRE D'ACTION BÉNÉVOLE DES RIVERAINS","100 rue de la Fabrique","Sainte-Anne-de-la-Pérade (Québec)",NA,"G0X2J0","promouvoir l'action bénévole","APE",46.574379,-72.203532
1142093914,"CLUB DIAMANT INC.","5195 rue de Chamonix","Trois-Rivières (Québec)",NA,"G8Y5Y8","-","APE",46.349457,-72.610262
1142094011,"ASSOCIATION QUÉBÉCOISE DES LOISIRS FOLKLORIQUES RÉGION MAURICIE","107 rue Guimont","Saint-Boniface (Québec)",NA,"G0X2L0","PRÉSERVER ET PROMOUVOIR LA MUSIQUE TRADITIONNELLE QUÉBÉCOISE","APE",46.503326,-72.829844
1142005264,"LES CHEVALIERS DE COLOMB DU CONSEIL ST-GEORGES-DE- CHAMPLAIN NO: 2909","650 206e Avenue","Shawinigan (Québec)",NA,"G9T3K3","ACTIVITÉS SOCIALES, COMMUNAUTAIRES","APE",46.626824,-72.654979
1142005454,"LES CHEVALIERS DE COLOMB DU CONSEIL DE STE-THECLE NO: 2817","331A rue Saint-Jacques","CP 664","Sainte-Thècle (Québec)","G0X3G0","ORGANISME À BUT NON LUCRATIF","APE",46.816211,-72.507218
1142031567,"LES CHEVALIERS DE COLOMB DU CONSEIL DE TROIS-RIVIÈRES NO: 1001","1800 RUE St-Paul","CP 1046","Trois-Rivières (Québec)","G9A1J7","ACTIVITÉS SOCIALES, COMMUNAUTAIRES","APE",46.357844,-72.549157
1142031708,"LES CHEVALIERS DE COLOMB DU CONSEIL GRAND'MÈRE NUMÉRO 1209","541 5e Rue","Shawinigan (Québec)",NA,"G9T4R9","ACTIVITÉS SOCIALES, COMMUNAUTAIRES","APE",46.615134,-72.690214
1142006247,"LES CHEVALIERS DE COLOMB DU CONSEIL DE LA TUQUE NO: 1887","297 rue Saint-Joseph","La Tuque (Québec)",NA,"G9X1K6","ACTIVITÉS SOCIALES, COMMUNAUTAIRES","APE",47.440756,-72.78554
1142033456,"CHEVALIERS DE COLOMB DU CONSEIL DE NOTRE-DAME DU CAP NO:2669","1001 rang Saint-Malo","Trois-Rivières (Québec)",NA,"G8V1X4","RECHERCHES NOURRITURE VÊTEMENTS","APE",46.392389,-72.510325
1142033845,"LES CHEVALIERS DE COLOMB DU CONSEIL DE LOUISEVILLE NO: 2783","50 av. Saint-Laurent","Louiseville (Québec)",NA,"J5V1J4","ACTIVITÉS SOCIALES, COMMUNAUTAIRES","APE",46.256765,-72.941494
1142054924,"LES CHEVALIERS DE COLOMB DU CONSEIL DE TROIS-RIVIÈRES OUEST, NO. 6874","350 côte Richelieu","Trois-Rivières (Québec)",NA,"G9A2Z1","ACTIVITÉS SOCIALES et COMMUNAUTAIRES","APE",46.323111,-72.568105
1142055988,"LES CHEVALIERS DE COLOMB DU CONSEIL DE ST-LOUIS-DE-FRANCE, NUMERO 9956","3825 boul. Thibeau","Trois-Rivières (Québec)",NA,"G8W2H4","ACTIVITÉS SOCIALES et COMMUNAUTAIRES","APE",46.438548,-72.613991
1142009217,"LES CHEVALIERS DE COLOMB DU CONSEIL DE ST-MAURICE NO: 2877","2431 RANG St-Jean","CP 11","Saint-Maurice (Québec)","G0X2X0","ACTIVITÉS SOCIALES, COMMUNAUTAIRES","APE",46.468478,-72.531872
1142009308,"LES CHEVALIERS DE COLOMB DU CONSEIL DE ST-STANISLAS, NO. 2903","C-33 RUE du Pont","St-Stanislas (Québec)",NA,"G0X3E0","ACTIVITÉS SOCIALES, COMMUNAUTAIRES","APE",46.611027,-72.387238
1142009555,"LES CHEVALIERS DE COLOMB DU CONSEIL DE ST-TITE NO. 2242","700 rue Brunelle","Saint-Tite (Québec)",NA,"G0X3H0","ACTIVITÉS SOCIALES, COMMUNAUTAIRES","APE",46.730905,-72.559511
1142057497,"CHEVALIERS DE COLOMB DU CONSEIL DE POINTE-DU-LAC, NUMERO 7929","130-10605 CH. Ste-Marguerite","Trois-Rivières (Québec)",NA,"G9B6M6","ACTIVITÉS SOCIALES et COMMUNAUTAIRES","APE",46.305291,-72.645771
1142041988,"ASSOCIATION GENERALE DES ETUDIANTS DE L'UNIVERSITE DU QUEBEC A TROIS-RIVIERES","1022PV-3351 BOUL. DES FORGES","Trois-Rivières (Québec)",NA,"G9A5H7","ACTIVITÉS ÉTUDIANTES SUR LE CAMPUS DE L'UQTR DÉFENDRE LES DROITS DES ÉTUDIANTS DU CAMPUS DE L'UQTR","APE",46.348038,-72.57778
1142015545,"CLUB D'AGE D'OR DE STE-ANGELE-DE- PREMONT, COMTE MASKINONGE","2451 rue Camirand","Sainte-Angèle-de-Prémont (Québec)",NA,"J0K1R0","CLUB D'ÂGE D'OR","APE",46.364662,-73.057154
1142043141,"CORPORATION DE DÉVELOPPEMENT DURABLE DE MÉKINAC (PONT MÉKINAC)","560, NOTRE DAME CP 490","SAINT-TITE QC",NA,"G0X3H0","Propriétaire et gestionnaire d'un pont payant sur la rivière Saint-Maurice.","APE",46.726617,-72.564623
1141981473,"CENTRE DE LA PETITE ENFANCE LE PETIT FORGERON INC.","990 place Boland","Trois-Rivières (Québec)",NA,"G8Z4H2","SERVICE DE GARDE (GARDERIE)","APE",46.340497,-72.580732
1142049288,"ASSOCIATION DES MOOSE DU QUÉBEC","271 202e Rue","Shawinigan (Québec)",NA,"G9T5A1","REGROUPEMENT LOCAL MOOSE DU QUÉBEC","APE",46.62137,-72.667513
1142179937,"SOCIETE DE CONSERVATION ET D'ANIMATION DU PATRIMOINE DE TROIS-RIVIERES INC.","123 rue Radisson","Trois-Rivières (Québec)",NA,"G9A2C5","PROTECTION ET MISE EN VALEUR DU PATRIMOINE RECHERCHE HISTORIQUE","APE",46.342573,-72.540543
1142227686,"REGROUPEMENT DES CENTRES D'ACTION BENEVOLE REGION 04 (RCAB-04)","660 13e Rue","Shawinigan (Québec)",NA,"G9T3Z3","PROMOTION DE L'ACTION BÉNÉVOLE ET REPRÉSENTATION DES INTÉRÊTS MEMBRES","APE",46.60954,-72.700934
1142183434,"SOCIÉTÉ DU SOUVENIR DE SAINT-JEAN-DES-PILES","3501 rang Saint-Olivier","Shawinigan (Québec)",NA,"G0X2V0","Conservation de documents historiques; préparation de fêtes commémoratives","APE",46.690882,-72.795199
1142183442,"L'HEURE DE LA BONNE NOUVELLE INC.","870 rue Maurice-Paquin","Trois-Rivières (Québec)",NA,"G8W2H1","ANNONCER L'ÉVANGILE À TÉLÉVISION EN DISTRIBUANT LITTÉRATURE ADMINISTRER DON","APE",46.419356,-72.570068
1142197418,"CLUB AMIS-PLUS","4393 boul. des Hêtres","Shawinigan (Québec)",NA,"G9N4V5","RENCONTRES SOCIALES ET AMICALES","APE",46.568874,-72.734429
1142184309,"CLUB DES ALOUETTES","133 rue des Bocages","Trois-Rivières (Québec)",NA,"G9B6R8","Club de chasse et pêche et centre de villégiature à but non lucratif","APE",46.285055,-72.675596
1142216200,"SPRINT, TROIS-RIVIÈRES, INC.","610 rue Guy-Benoît","Saint-Maurice (Québec)",NA,"G0X2X0","Développement de l'employabilité; formation sur le marché du travail","APE",46.439877,-72.516036
1142188656,"ASSOCIATION QUÉBÉCOISE POUR LE LOISIR DES PERSONNES HANDICAPÉES","320-25 RUE des Forges","Trois-Rivières (Québec)",NA,"G9A6A7","PROMOUVOIR LE LOISIR POUR LES PERSONNES HANDICAPÉES","APE",46.342492,-72.545485
1142173708,"CLUB RÉCRÉATIF DU SAUVAGE MAURICIEN INC.","201-160 place P.-E.-Trudeau","Trois-Rivières (Québec)",NA,"G8W1P9","LOISIRS, CHASSE ET PÊCHE","APE",46.371613,-72.568191
1142205476,"CLUB NAUTIQUE LA TUQUOIS INC.","12, RUE BOSTONNAIS","LA TUQUE (QUÉBEC)",NA,"G9X2E7","ORGANISER ACTIVITÉS & EXCURSION NAUTIQUE","APE",47.456897,-72.777992
1142205971,"ASSOCIATION COOPERATIVE D'ECONOMIE FAMILIALE DE LA MAURICIE (ACEF)","274 rue Bureau","Trois-Rivières (Québec)",NA,"G9A2M7","AIDE AUX FAMILLES ET INDIVIDUS VIVANT ENDETTEMENT / DÉFENSE DROITS CONSOMM.","COP",46.339165,-72.544515
1142221861,"CENTRE DE LA PETITE ENFANCE LE PETIT NAVIRE INC.","2770 rue Forest","Trois-Rivières (Québec)",NA,"G8Z4K8","SERVICE DE GARDE, ÉDUCATION AUPRÈS CLIENTÈLE PRÉSCOLAIRE  (0 mois À 4 ANS)","APE",46.331056,-72.589409
1142176602,"LE CENTRE ÉVANGÉLIQUE DE SHAWINIGAN","773 av. de la Station","Shawinigan (Québec)",NA,"G9N1W3","PROPAGER ÉVANGILE JÉSUS-CHRIST ICI ÉTRANGER ÉTABLIR MAINTENIR LIEU CULTE","APE",46.54256,-72.752349
1142167452,"CLUB LITTÉRAIRE DE LOUISEVILLE INC.","944 rue Notre-Dame S","Louiseville (Québec)",NA,"J5V2L4","FAIRE CONNAÎTRE LES ARTS ET L'ÉCRITURE PROMOUVOIR LA LANGUE FRANÇAISE","APE",46.240101,-72.924117
1142139428,"FADOQ-RÉGION MAURICIE","3330 RUE Bellefeuille","Trois-Rivières (Québec)",NA,"G9A3Z3","INFORMATION - ANIMATION - SOUTIEN TECHNIQUE AU FONCTIONNEMENT 70 CLUBS FAISANT PARTI DU RÉSEAU FADOQ ET SERVICES AUX MEMBRES","APE",46.333438,-72.558341
1142153791,"CENTRE COMMUNAUTAIRE SHAWINIGAN INC.","253 3e rue de la Pointe","Shawinigan (Québec)",NA,"G9N1H5","Promouvoir l'action communautaire, culturelle, sportive, etc.","APE",46.539249,-72.745456
1142118125,"CENTRE D'ACTION BENEVOLE DE GRAND'MERE INC.","660 13e Rue","Shawinigan (Québec)",NA,"G9T3Z3","Développement de l'action bénévole et communautaire; maintien à domicile","APE",46.60954,-72.700934
1142118687,"CLUB BELLE PECHE INC.","3870 rue Dompierre","Trois-Rivières (Québec)",NA,"G8Y4Y6","PROMOUVOIR ACTIVITÉS DE PLEIN AIR","APE",46.346754,-72.60528
1142119156,"CLUB DE L'ÂGE D'OR DE STE-CATHERINE-DE-SIENNE","350 côte Richelieu","Trois-Rivières (Québec)",NA,"G9A2Z1","ACTIVITÉS RÉCRÉATIVES: PÉTANQUE, CARTE, BINGO, BASEBALL, POCHE ETC.","APE",46.323111,-72.568105
1142119164,"CLUB MINOMAQUAM INC.","234 ch. du Lac-Cuisy","La Tuque (Québec)",NA,"G9X3N8","CLUB CHASSE ET PÊCHE / ASSOCIATION SANS BUT LUCRATIF","APE",47.2831,-72.7093
1142119859,"BIENNALE NATIONALE DE SCULPTURE CONTEMPORAINE","864, DES URSULINES, C.P. 1596","TROIS-RIVIÈRES (QUÉBEC)",NA,"G9A5L9","ORGANISER ET PRÉSENTER DES EXPOSITIONS D'OEUVRES D'ART","APE",46.342929,-72.538486
1142134908,"ASSOCIATION DE CHASSE ET PECHE ASITABEC INC.","1060 rang Saint-Pierre S","Hérouxville (Québec)",NA,"G0X1J0","GESTION D'UN TERRITOIRE D'EXPLOITATION Z.E.C.","APE",46.673763,-72.613636
1142135285,"CORPORATION TRANSPORT ADAPTÉ MÉKINAC (C.T.A.M.)","206-301 rue Saint-Jacques","Sainte-Thècle (Québec)",NA,"G0X3G0","TRANSPORT ADAPTÉ POUR PERSONNES HANDICAPÉES","APE",46.818583,-72.504294
1142135418,"CORPORATION DU PLANETARIUM DE LA MAURICIE","205 rue Ringuet","Trois-Rivières (Québec)",NA,"G9A3C6","CIVIQUES ET AMICALES","APE",46.362349,-72.554756
1142147892,"EXPLORART","1425 place de l'Hôtel-de-Ville","Trois-Rivières (Québec)",NA,"G9A4S7","RENCONTRES DE GROUPE ACTIVITÉS CULTUR. ET ART./VOYAGES CULT. VIS. MUSÉES.","APE",46.342716,-72.543163
1142148270,"Club de patinage artistique de Shawinigan","2850 25e Rue","Shawinigan (Québec)",NA,"G9T3R9","CLUB SPORTIF","APE",46.614923,-72.72607
1142136754,"ASSOCIATION DES SCOUTS DU CANADA DISTRICT DE LA MAURICIE","1295 ch. des Pins","Trois-Rivières (Québec)",NA,"G8W2K1","SCOUT, GUIDE, LOUVETEAUX, ETC BASE PLEIN-AIR","APE",46.397819,-72.616174
1142337071,"CLUB LA TRENCHE INC.","435 rue Deschamps","Shawinigan (Québec)",NA,"G9R1N1","LOISIRS CHASSE & PÊCHE","APE",46.587851,-72.790503
1142324251,"L'ASSOCIATION DES PROPRIETAIRES DU LAC BELL INC.","711 ch. du Lac-Bell","Saint-Élie-de-Caxton (Québec)",NA,"G0X2N0","Entretien du chemin et organisation de rencontres amicales","APE",46.51782,-72.939623
1142324814,"MUSÉE PIERRE BOUCHER","858 rue Laviolette","Trois-Rivières (Québec)",NA,"G9A5J1","GESTION D'UN MUSÉE ET DE SES COLLECTIONS, EXPOSITIONS ET ANIMATION","APE",46.349071,-72.544762
1142302752,"L'ASSOCIATION DE CHASSE ET DE PÊCHE DE LA MAURICIE INC.","4640 rue De Carufel","Notre-Dame-du-Mont-Carmel (Québec)",NA,"G0X3J0","CHASSE & PÊCHE - LOISIRS","APE",46.490831,-72.709965
1142314450,"CLUB DES AÎNÉS DE ST-TITE INC.","480 boul. Saint-Joseph","Saint-Tite (Québec)",NA,"G0X3H0","Promouvoir et organiser des services pour personnes âgées","APE",46.729607,-72.561353
1142325761,"CLUB TÉMULAC INC.","6965 rue Émile-Nelligan","Trois-Rivières (Québec)",NA,"G8Y7C1","CHASSE LOISIR ET PÊCHE","APE",46.364563,-72.614727
1142304873,"LE CLUB DE L'AGE D'OR DE LOUISEVILLE","50 av. Saint-Laurent","Louiseville (Québec)",NA,"J5V1J4","JEU DE CARTE JEUX DE SACS DE SABLE BASEBALL PÉTANQUE JEUX DE PALETS MARCHE","APE",46.256765,-72.941494
1142305995,"MAISON DE TRANSITION DE LA BATISCAN","1605 rue Principale","Saint-Stanislas (Québec)",NA,"G0X3E0","-","APE",46.615992,-72.385152
1142317545,"CLUB DE CAMPING AMITIÉ INC.","7125 rue P.-E.-Neveu","Trois-Rivières (Québec)",NA,"G8Y4W9","VISITE DE TERRAIN DE CAMPING, ORGANISATION D'ACTIVITÉS SPORTIVES & SOCIALES.","APE",46.368659,-72.614281
1142317628,"LA MAISON DE JEUNES ""AU BOUT DU MONDE"" DE ST-PAULIN","1811 rue Damphousse","Saint-Paulin (Québec)",NA,"J0K3G0","Maison de jeunes","APE",46.422492,-73.015669
1142292367,"CLUB BO-CHARLES INC.","1170 rue Bellefeuille","Trois-Rivières (Québec)",NA,"G9A3T6","LOISIRS, CLUB DE CHASSE ET PÊCHE A BUT NON LUCRATIF","APE",46.34609,-72.548646
1142293100,"ATELIER SILEX INC.","1095 rue du Père-Frédéric","Trois-Rivières (Québec)",NA,"G9A3S5","CENTRE D'ARTISTE EN ART ACTUEL","APE",46.348546,-72.548518
1142309146,"SOLIDARITÉ RÉGIONALE D'AIDE ET D'ACCOMPAGNEMENT POUR LA DÉFENSE DES DROITS EN SANTÉ MENTALE DU CENTRE-DU-QUÉBEC/MAURICIE","305-1060 RUE Saint-François-Xavier","Trois-Rivières (Québec)",NA,"G9A1R8","AIDE, ACCOMPAGNEMENT, DÉFENSE DE DROITS EN SANTÉ MENTALE","APE",46.350433,-72.545267
1142321034,"FADOQ CLUB STE-GENEVIÈVE-DE-BATISCAN","2 rue du Centre","Sainte-Geneviève-de-Batiscan (Québec)",NA,"G0X2R0","RENCONTRE PERSONNES AGÉES - LOISIRS - JEUX DE CARTES - BINGO BASEBALL - POCHES- PÉTANQUE - ATOUT","APE",46.529809,-72.338584
1142296723,"CLUB DE TAEKWON-DO DE ST-GREGOIRE","400 rue Le Corbusier","Trois-Rivières (Québec)",NA,"G8Z1A5","Offrir et promouvoir le taekwondo à Saint-Grégoire","APE",46.366627,-72.56798
1142321679,"FÉDÉRATION DES GUIDES CATHOLIQUES DU DIOCÈSE DE TROIS-RIVIÈRES","850 ch. du Lac-Vert","Saint-Mathieu-du-Parc (Québec)",NA,"G0X1N0","ACTIVITÉS RELIÉES AU DÉVELOPPEMENT,  À LA FORMATION ET L'ÉDUCATION DES JEUNES","APE",46.567743,-72.932924
1142321802,"CLUB GEOFFRION","4165 rue Renoir","Trois-Rivières (Québec)",NA,"G8Y6Y6","CHASSE ET PÊCHE / VILLÉGIATURE","APE",46.345443,-72.61586
1142323014,"LES LOISIRS STE-THÉRÈSE (TROIS-RIVIÈRES) INC.","2000 6e Rue","Trois-Rivières (Québec)",NA,"G8Y4V9","ORGANISER ET OFFRIR DES SERVICES EN MATIÈRE DE LOISIRS","APE",46.356005,-72.596381
1142299131,"ASSOCIATION DES PROPRIETAIRES DU LAC PIERRE-PAUL","571 rue Saint-Philippe","Saint-Tite (Québec)",NA,"G0X3H0","ASSOCIATION DE PROPRIÉTAIRES","APE",46.731083,-72.563604
1142285395,"ASSOCIATION RECREATIVE CLUB LATUQUOIS INC.","3 RUE Domaine-Morency","La Tuque (Québec)",NA,"G9X3N7","CLUB SOCIAL ET RÉCRÉATIF","APE",47.46155,-72.76365
1142270421,"ASSOCIATION DES CADRES DE L'UNIVERSITÉ DU QUÉBEC À TROIS-RIVIÈRES","3351 boul. des Forges","Trois-Rivières (Québec)",NA,"G8Z4M3","Regrouper en association les cadres; promouvoir les intérêts des membres","APE",46.348038,-72.57778
1142285601,"LE CENTRE PAROISSIAL DE YAMACHICHE","570 rue Sainte-Anne","Yamachiche (Québec)",NA,"G0X3L0","LOCATION DE SALLES POUR ASSOCIATION PAROISSIALE","APE",46.281617,-72.830457
1142285890,"LES RETRAITÉS DU MANOIR DU VIEUX MOULIN","504-521 rue Notre-Dame E","Trois-Rivières (Québec)",NA,"G8T8L9","GROUPER ASS RETRAITÉS DU MANOIR DU VIEUX MOULIN ENCOURAGER LA CAMARADERIE, LE BÉNÉVOLAT ET L'ESPRIT D'ÉQUIPE","APE",46.389935,-72.471619
1142286518,"ASSOCIATION DES HANDICAPÉS ADULTES DE LA MAURICIE INC.","1322 rue Sainte-Julie","Trois-Rivières (Québec)",NA,"G9A1Y6","ASSOCIATION SANS BUT LUCRATIF","APE",46.351176,-72.549878
1142256503,"Corporation de transport adapté et collectif du Haut St-Maurice (CTACHSM)","568 rue Commerciale","La Tuque (Québec)",NA,"G9X3A9","TRANSPORT ADAPTÉ DES PERSONNES HANDICAPÉS ET TRANSPORT COLLECTIF","APE",47.438936,-72.784714
1142256974,"LE CLUB SOCIAL DES EMPLOYÉS DU CENTRE FISCAL DE SHAWINIGAN-SUD","1-4695 boul. de Shawinigan-Sud","Shawinigan (Québec)",NA,"G9P5H9","CLUB RÉCRÉATIF.","APE",46.505903,-72.731994
1142273946,"EBYÔN","89 rue Saint-Irénée","Trois-Rivières (Québec)",NA,"G8T7C3","SOUPE POPULAIRE ET COURS D'ALPHABÉTISATION DÉFENSE DES DROITS  DISTRIBUTION ALIMENTAIRE","APE",46.36442,-72.522233
1142290353,"Fondation pour la communauté St-Paul inc.","499 av. de Grand-Mère","Shawinigan (Québec)",NA,"G9T2H3","Appuyer oeuvres de la Communauté St-Paul","APE",46.615679,-72.689679
1142260547,"PAVILLON DE LOISIRS DES AINES DE SHAWINIGAN-SUD INC.","1607 117e rue","Shawinigan-Sud (Québec)",NA,"G9P3E3","CLUBS OU SERVICES DE LOISIRS, TERRAIN DE JEUX","APE",46.516927,-72.75529
1142246397,"SERVICE D'ACCUEIL DES NOUVEAUX ARRIVANTS (SANA) DE TROIS-RIVIÈRES","B100-2000 BLVD Des Recollets","Trois-Rivières (Québec)",NA,"G9A3X4","ACCUEIL ET INTÉGRATION DES IMMIGRANTS","APE",46.342779,-72.585997
1142247072,"CLUB INIOUK","931 rue du Golf","Trois-Rivières (Québec)",NA,"G8W2J3","CLUB DE CHASSE ET PÊCHE","APE",46.396041,-72.597429
1142278275,"DÉRÉCAMELS INC.","320 rue Saint-Zéphirin","La Tuque (Québec)",NA,"G9X1X2","-","APE",47.431533,-72.784449
1142234567,"ASSOCIATION DE CHASSE, PECHE ET VILLEGIATURE DU TAWACHICHE INC.","202 ch. Tawachiche E","Lac-aux-Sables (Québec)",NA,"G0X1M0","Zone contrôlée d'exploitation. Chasse pêche et villégiature","APE",46.928531,-72.467984
1142278887,"L'ASSOCIATION DES RETRAITES MUNICIPAUX DE TROIS-RIVIERES INC.","5225 rue de Courcelette","Trois-Rivières (Québec)",NA,"G8Y4L4","DIVERTIR RETRAITÉS","APE",46.340647,-72.588427
1142249680,"ASSOCIATION DU DOMAINE DU LAC BELISLE INC.","40 rue des Sapins","Notre-Dame-du-Mont-Carmel (Québec)",NA,"G0X3J0","FÊTE DU LAC","APE",46.513704,-72.634585
1142266288,"AGE D'OR SAINT-NARCISSE-DE-CHAMPLAIN","291 rue Louis","Saint-Narcisse (Québec)",NA,"G0X2Y0","Organiser des activités sociales et récréatives sans but lucratif","APE",46.566594,-72.472723
1142266643,"FONDATION CLAUDE MONGRAIN","260 rue Dessureault","Trois-Rivières (Québec)",NA,"G8T9T9","SPORT - LOISIRS","APE",46.378551,-72.527097
1142250613,"Le centre d'action bénévole Trait d'Union","4393 boul. des Hêtres","Shawinigan (Québec)",NA,"G9N4V5","ORG. À BUT NON LUCRATIF; MILIEU DE VIE AVEC FINALITÉS HUMAINES ET SOCIALES PROMOTION ET DÉVELOPPEMENT DE L'ACTION BÉNÉVOLE","APE",46.568874,-72.734429
1142281790,"Les Amis du Grand Prix","1610 RUE Bellefeuille","Trois-Rivières (Québec)",NA,"G9A2J9","Organiser et promouvoir des événements de sport automobile","APE",46.34228,-72.550271
1142253633,"DOMAINE BATCHELDER INC.","191 8e Rue","Shawinigan (Québec)",NA,"G9T4J7","POURVOIRIE","APE",46.610221,-72.691318
1142284612,"FONDATION DE LA SANTÉ ET DES SERVICES SOCIAUX DE L'ÉNERGIE","800 106e Avenue","Shawinigan (Québec)",NA,"G9P5H1","Fondation","APE",46.511336,-72.734498
1142393967,"O.T.J. ST-PAULIN INC.","1-3051 RUE Bergeron","Saint-Paulin (Québec)",NA,"J0K3G0","ORGANISATION ACTIVITÉS DE LOISIRS","APE",46.422819,-73.013421
1142394379,"ASSOCIATION RÉCRÉATIVE DE NORMANVILLE INC.","608C rue Joseph-L.-Rivard","Saint-Maurice (Québec)",NA,"G0X2X0","LOISIR POUR LES RÉSIDENTS DU QUARTIER","APE",46.437494,-72.517748
1142394619,"CLUB DES AINÉS DE SAINT-LÉON- LE-GRAND (MASKINONGÉ)","591 rang Barthélemy","Saint-Léon-le-Grand (Québec)",NA,"J0K2W0","JEUX DE CARTES 500. DAME DE PIQUE CANASTA BASEBALL POCHE","APE",46.301557,-72.978899
1142410217,"CLUB DE L'AGE D'OR ILE-DUPAS INC.","405-400 rue Hart","Trois-Rivières (Québec)",NA,"G9A0G9","ACTIVITÉS SOCIALES CLUB AGE D'OR","APE",46.345577,-72.539307
1142431502,"SACERF DE LA CROCHE INC.","1060 rang Saint-Pierre S","Hérouxville (Québec)",NA,"G0X1J0","GESTION, AMÉNAGEMENT, CONSERVATION ET EXPLOITATION FAUNE","APE",46.673763,-72.613636
1142411157,"CENTRE DE LA PETITE ENFANCE LE PIPANDOR","90, 119E RUE CP 1032","SHAWINIGAN-SUD (QUÉBEC)",NA,"G9P4E6","SERVICE DE GARDE","APE",46.523296,-72.744082
1142399550,"Tandem Mauricie","1493 rue Laviolette","Trois-Rivières (Québec)",NA,"G9A1W5","ACTIVITÉS INFORMATION ET PRÉVENTION EN MATIÈRE DE VIH/SIDA ET AUTRES ITSS","APE",46.352715,-72.550454
1142414557,"CLUB DE PECHE ET DE CHASSE DE TROIS-RIVIERES","1006 ch. Davidson","Saint-Tite (Québec)",NA,"G0X3H0","CLUB DE CHASSE ET PÊCHE","APE",46.728701,-72.565681
1142424671,"ASSOCIATION QUÉBÉCOISE DES SALONS DU LIVRE INC. (A.Q.S.L.)","100-60 RUE ST-ANTOINE","TROIS-RIVIÈRES (Québec)",NA,"G9A0C4","ASSOCIATION SANS BUT LUCRATIF","APE",46.341333,-72.541931
1142392787,"MOISSON MAURICIE / CENTRE-DU-QUÉBEC","1579 rue Laviolette","Trois-Rivières (Québec)",NA,"G9A1W5","RÉCUPÉRATION DES DENRÉES ALIMENTAIRES ET REDISTRIBUTION À DIFFÉRENTS ORGAN. FAVORISER LA PRISE EN CHARGE PAR DIVERS MOYENS","APE",46.353473,-72.551308
1142405431,"CLUB DE MOTOS-NEIGE DU COMTÉ DE CHAMPLAIN INC.","2691 rang Saint-Jean","Saint-Maurice (Québec)",NA,"G0X2X0","ENTRETIEN DES SENTIERS DE MOTONEIGE SAISON HIVERNALE","APE",46.472936,-72.526327
1142350595,"PROMOTION STE-THÈCLE INC.","301 rue Saint-Jacques","Sainte-Thècle (Québec)",NA,"G0X3G0","Promouvoir les intérêts économiques","APE",46.815055,-72.507698
1142360792,"LA CORPORATION DES CONCESSIONNAIRES D'AUTOMOBILES DE LA MAURICIE INC.","3115 boul. Saint-Jean","Trois-Rivières (Québec)",NA,"G9B2M3","ASSOCIATION D'HOMMES D'AFFAIRES - SANS BUT LUCRATIF","APE",46.328608,-72.601224
1142361337,"CLUB AGE D'OR HERVEY JONCTION","240 ch. Saint-Charles","Lac-aux-Sables (Québec)",NA,"G0X1M0","JEU DE PÉTANCLE Atout,JEU DE POCHES, JEU CARTES, Baseball poche, 13 journées jeux de cartes avec repas et 9 repas mensuels.","APE",46.852644,-72.471451
1142374173,"FESTIVAL WESTERN DE ST-TITE INC.","107-581 rue Saint-Paul","Saint-Tite (Québec)",NA,"G0X3H0","ORGANISER ET PRÉSENTER FESTIVAL, AMUSEMENTS, DIVERTISSEMENTS VARIÉS","APE",46.727695,-72.564289
1142350611,"CLUB DE RADIO AMATEURS LA TUQUE INC.","340 rue Tessier","La Tuque (Québec)",NA,"G9X3E4","Télécommunication; soutien et protection en cas de désastres","APE",47.446146,-72.787149
1142386177,"LE CLUB KIWANIS DES TROIS- RIVIERES INC.","27 rue Saint-Émile","Trois-Rivières (Québec)",NA,"G8T8K5","OEUVRES DE BIENFAISANCE, LEVÉE DE FONDS","APE",46.372014,-72.537184
1142386920,"CLUB DE PATINAGE ARTISTIQUE LES CABRIOLES","CASE POSTALE 3373","425, BOULEVARD SAINT-JOSEPH","SAINT-TITE (QUÉBEC)","G0X3H0","COURS DE PATINAGE ARTISTIQUE","APE",46.730752,-72.560561
1142387050,"L'ASSOCIATION RÉCRÉATIVE DE ST-JEAN BAPTISTE DE LA SALLE INC.","595 rue des Bouleaux","Trois-Rivières (Québec)",NA,"G8Y4L7","LOISIRS","APE",46.365878,-72.574361
1142376053,"SOCIÉTÉ DE GÉNÉALOGIE DU GRAND TROIS-RIVIÈRES","555 rue Notre-Dame E","Trois-Rivières (Québec)",NA,"G8T0E8","RECHERCHES DES MEMBRES EN GÉNÉALOGIE TOUTES ACTIVITÉS FAVORISANT CES RECHERCHES","APE",46.36788,-72.499868
1142377655,"FONDATION DES PETITS CHANTEURS DE TROIS-RIVIÈRES","1405 rue Flamand","Trois-Rivières (Québec)",NA,"G8Y6T5","FONDATION POUR OBJET RECUEILLIR ET ADMINISTRER LES FONDS RECUEILLIS, ETC.","APE",46.380169,-72.61936
1142378380,"LES RÉSIDENCES DU FLEUVE DE POINTE-DU-LAC INC.","4505, BOUL. DES RÉCOLLETS, C.P. 1119","TROIS-RIVIÈRES (QUÉBEC)",NA,"G9A5K4","PROMOTEUR IMMOBILIER SANS BUT LUCRATIF","APE",46.326675,-72.563901
1142378471,"SADC Shawinigan","812 av. des Cèdres","Shawinigan (Québec)",NA,"G9N1P2","-","APE",46.54308,-72.745736
1142379024,"CLUB DE CHASSE ET PÊCHE GRAND SHAW INC.","1099 rue Frontenac","Trois-Rivières (Québec)",NA,"G8V1M7","ASSOCIATION DE CHASSEURS ET PÊCHEURS","APE",46.395466,-72.5562
1142379800,"ASSOCIATION RECREATIVE L'ANTIDOTE INC.","200-1055 boul. des Forges","Trois-Rivières (Québec)",NA,"G8Z4J9","ASSOCIATION RÉCRÉATIVE D'EMPLOYÉS","APE",46.384,-72.63943
1142356337,"CENTRE DE LA PETITE ENFANCE LE CHEVAL SAUTOIR","678 rue Hart","Trois-Rivières (Québec)",NA,"G9A4R8","GARDERIE D'ENFANTS","APE",46.346522,-72.537812
1142369736,"CENTRE D'ACTION BÉNÉVOLE DE LA MORAINE","511 rue Massicotte","Saint-Narcisse (Québec)",NA,"G0X2Y0","PROMOUVOIR L'ACTION BÉNÉVOLE ET COMMUNAUTAIRE RÉPONDRE AU BESOIN DU MILIEU","APE",46.562691,-72.47069
1142346353,"LES AMIS DES ESTACADES INC.","501 rue des Érables","Trois-Rivières (Québec)",NA,"G8T5J2","Favoriser l'accessibilité à l'excellence dans le développement sportif, éducatif et artistique","APE",46.3777,-72.525649
1142380543,"ASSOCIATION REGIONALE DU SPORT ETUDIANT DE LA MAURICIE","260 rue Dessureault","Trois-Rivières (Québec)",NA,"G8T9T9","ORGANISATION D'ACTIVITÉS SPORTIVES","APE",46.378551,-72.527097
1142346635,"ASSOCIATION DES LOCATAIRES DES H.L.M. DE LOUISEVILLE","225-170 rue Baril","Louiseville (Québec)",NA,"J5V2R6","LOISIRS LOCATAIRES ORGANISER DES ACTIVITÉS POUR DIVERTIR LES PERSONNES AGÉES","APE",46.249849,-72.943671
1142381897,"MAISON CARIGNAN INC.","7515 boul. Parent","Trois-Rivières (Québec)",NA,"G9C0M5","Hébergement en dépendance","APE",46.363228,-72.630476
1142486878,"CLUB SOCIAL DU CENTRE HOSPITALIER STE-THÉRÈSE DE SHAWINIGAN","1705 av. Georges","Shawinigan (Québec)",NA,"G9N2N1","ACTIVITÉS SOCIALES","APE",46.553034,-72.747145
1142519280,"COMITÉ DE SOLIDARITÉ TIERS-MONDE/ FONDS DE CHARITÉ - T.-R.","942 rue Sainte-Geneviève","Trois-Rivières (Québec)",NA,"G9A3X6","FONDATION","APE",46.346415,-72.543446
1142520254,"FONDS DE SOLIDARITE TIERS-MONDE-TR","942 rue Sainte-Geneviève","Trois-Rivières (Québec)",NA,"G9A3X6","ORGANISATIONS CIVIQUES ET AMICALES","APE",46.346415,-72.543446
1142499665,"LES CHEVALIERS DE COLOMB DE L'ASSEMBLÉE LUC DÉSILETS, NUMÉRO 1674","1001 rang Saint-Malo","Trois-Rivières (Québec)",NA,"G8V1X4","ACTIVITÉS SOCIALES, COMMUNAUTAIRES ET RELIGIEUSES","APE",46.392389,-72.510325
1142520627,"COMITÉ DE SOLIDARITÉ/TROIS-RIVIÈRES","942 rue Sainte-Geneviève","Trois-Rivières (Québec)",NA,"G9A3X6","ORGANISATIONS CIVIQUES ET AMICALES","APE",46.346415,-72.543446
1142521070,"FONDATION TRIFLUVIENNE D'ÉDUCATION À LA SOLIDARITÉ","942 rue Sainte-Geneviève","Trois-Rivières (Québec)",NA,"G9A3X6","ORGANISATIONS CIVIQUES ET AMICALES","APE",46.346415,-72.543446
1142521203,"CENTRE DE LA PETITE ENFANCE LA CLÉ DES CHAMPS INC.","385 rue Saint-Zéphirin","La Tuque (Québec)",NA,"G9X1X7","SERVICE DE GARDE POUR LES 0 À 5 ANS","APE",47.43115,-72.780796
1142510867,"LES CHEVALIERS DE COLOMB DE L'ASSEMBLÉE LOUISEVILLE, NUMÉRO 1047","870 rang du Petit-Bois","Louiseville (Québec)",NA,"J5V1H1","AIDE À L'ÉGLISE ET AUX DÉMUNIS","APE",46.25584,-72.958961
1142511204,"LES CHEVALIERS DE COLOMB DE L'ASSEMBLÉE CURÉ MASSON, NUMÉRO 1050","331 rue Saint-Jacques","Sainte-Thècle (Québec)",NA,"G0X3G0","ACTIVITÉS SOCIALES, COMMUNAUTAIRES ET RELIGIEUSES","APE",46.816211,-72.507218
1142513416,"ASSOCIATION DE LA CONSTRUCTION DU QUÉBEC - REGION MAURICIE- BOIS-FRANCS-LANAUDIERE","100-2575 rue de l'Industrie","Trois-Rivières (Québec)",NA,"G8Z4T1","ASSOCIATION D'ENTREPRENEURS","APE",46.334962,-72.586304
1142496836,"COMITÉ DU BASEBALL MINEUR DE ST-ÉTIENNE-DES-GRÈS","165 rue des Seigneurs","Saint-Étienne-des-Grès (Québec)",NA,"G0X2P0","RECRUTER DES JEUNES JOUEURS DE BASEBALL ET LEUR ENSEIGNER PRINCIPES, ETC...","APE",46.439809,-72.786688
1142441550,"AUX TROIS PIVOTS","543 rue Laviolette","Trois-Rivières (Québec)",NA,"G9A1V4","INTERVENTIONS COMMUNAUTAIRES - SERVICE DE RÉSOLUTION DE CONFLITS","APE",46.346303,-72.542892
1142452441,"R.D.D.S. (SHAWINIGAN) INC.","2-2513 av. Saint-Marc","Shawinigan (Québec)",NA,"G9N2K2","ORGANISATION CIVIQUE ET AMICALE - ORGANISME DE DÉFENSE DES DROITS","APE",46.554127,-72.74175
1142442335,"L'ACCUEIL JEUNESSE GRAND'MÈRE INC.","653 8e Avenue","Shawinigan (Québec)",NA,"G9T1Y2","OPÉRER MAISON DE JEUNES 12-18 ANS/ACTIVITÉS CULTURELLES, LOISIRS, SPORT","APE",46.615588,-72.693844
1142464727,"CLUB OPTIMISTE DE MASKINONGE INC.","36B rue Saint-Denis","Maskinongé (Québec)",NA,"J0K1N0","AIDE À LA JEUNESSE .... CLUB OPTIMISTE","APE",46.230694,-73.01873
1142455204,"CHOEUR AMIS-VOIX","140 rue Guimont","Saint-Boniface (Québec)",NA,"G0X2L0","CHANT CHORAL","APE",46.503518,-72.830439
1142457135,"CLUB DE L'AGE D'OR SAINTE-THERESE-DE- L'ENFANT-JESUS, TROIS-RIVIERES","5655 place Charles-P.-Rocheleau","Trois-Rivières (Québec)",NA,"G8Y4N5","JEUX DIVERS POUR PERSONNES DU 3E ÂGE REPAS - COURS DE DANSE DE LIGNE","APE",46.359933,-72.60219
1142458521,"LE BON CITOYEN","45 rue Fusey","Trois-Rivières (Québec)",NA,"G8T2T6","-","APE",46.364352,-72.528935
1142434035,"SOUTIEN À DOMICILE DES CHENAUX","110-44 rang de la Rivière-à-Veillet","Sainte-Geneviève-de-Batiscan (Québec)",NA,"G0X2R0","EXPLOITATION D'UN CENTRE DE DÉPANNAGE : EXPLOI D'UN ORGANISME BIEN-FAISANCE","APE",46.564545,-72.341041
1142434050,"Club FADOQ Shawinigan-Sud","615 123ième Rue","Shawinigan-Sud (Québec)",NA,"G9P3R3","ORGANISATION DE LOISIR DE GROUPE, CARTES/DANSES/BINGO/COURS /CONFERENCE","APE",46.518988,-72.74482
1142460121,"LA VILLA FAMILIALE DES LACS MCLAREN ET PRATTE INC.","CP - 216","Shawinigan (Québec)",NA,"G9N6T9","CAMPING FAMILIAL POUR CLASSE OUVRIÈRE","APE",46.538707,-72.751753
1142461046,"COMITÉ DES LOISIRS DE HEROUXVILLE","1160 rang Saint-Pierre S","Hérouxville (Québec)",NA,"G0X1J0","ORGANISER, PROMOUVOIR ET ENCOURAGER DES ACTIVITÉS RÉCRÉATIVES, SPORTIVES... AGIR COMME ORGANISME DE CONSULTATION AUPRÈS DE LA MUNICIPALITÉ","APE",46.672295,-72.611633
1142603084,"CENTRE D'ACTION BÉNÉVOLE MÉKINAC","752 boul. Saint-Joseph","Saint-Tite (Québec)",NA,"G0X3H0","PROMOTION DE L'ACTION BÉNÉVOLE SERVICES AUX INDIVIDUS","APE",46.726012,-72.55815
1142592188,"FONDATION VINCENT SPAIN INC.","92 ch. du Contour-du-Lac-à-Beauce","La Tuque (Québec)",NA,"G9X3N8","FAVORISER LES ARTS ET LA CULTURE EN GÉNÉRAL AUPRÈS LA POPULATION","APE",47.323136,-72.760801
1142603878,"RENDEZ-VOUS FAMILIAL POINTE ST-CHARLES INC.","100 ch. Val-Notre-Dame","Hérouxville (Québec)",NA,"G0X1J0","PROMOUVOIR DES VACANCES POUR FAMILLES A FAIBLE REVENUE","APE",46.706305,-72.646449
1142583070,"SOCIÉTÉ CANADIENNE D'HISTOIRE DE L'EGLISE CATHOLIQUE","3351, BOULEVARD DES FORGES","TROIS-RIVIÈRES (QUÉBEC)",NA,"G9A5H7","PUBLIER UNE REVUE D'HISTOIRE ORGANISE ANNUELLEMENT UN CONGRÈS D'HISTOIRE","APE",46.348038,-72.57778
1142620112,"ASSOCIATION GÉNÉRALE DES ÉTUDIANTES ET ÉTUDIANTS DU COLLÈGE SHAWINIGAN","2263 av. du Collège","Shawinigan (Québec)",NA,"G9N6V8","REGROUPER & DÉFENDRE LES DROITS ET INTÉRÊTS DES ÉTUDIANTES ET ÉTUDIANTS","APE",46.564126,-72.7528
1142595124,"Caisse Desjardins de La Tuque","341 rue Saint-Joseph","La Tuque (Québec)",NA,"G9X1L3","LOI SUR LES CAISSES D'ÉPARGNE ET DE CRÉDIT","COP",47.440642,-72.78334
1142620708,"Association pour la déficience intellectuelle et trouble du spectre de l'autisme Centre-Mauricie/Mékinac","2153 rue Gignac","Shawinigan (Québec)",NA,"G9N3X3","-","APE",46.562934,-72.747211
1142621607,"CLUB BOIS SOLEIL INC.","353 17e Rue","Shawinigan (Québec)",NA,"G9T3S4","CHASSE ET PÊCHE","APE",46.603728,-72.703986
1142584888,"L'ASSOCIATION DES AUXILIAIRES BÉNÉVOLES DU CENTRE HOSPITALIER LAFLÈCHE INC.","1650 av. de Grand-Mère","Shawinigan (Québec)",NA,"G9T2K4","-","APE",46.606386,-72.707388
1142596379,"CERCLE DE L'ÂGE D'OR AFFILIÉ DE ST-ODILON","615-101 rue Cooke","Trois-Rivières (Québec)",NA,"G8T8Z5","ÂGE D'OR ST-ODILON","APE",46.393134,-72.562329
1142599142,"ASSOCIATION DES USAGERS DU LAC DU BARRAGE INC.","430 rue du Lac-du-Barrage","Saint-Élie-de-Caxton (Québec)",NA,"G0X2N0","-","APE",46.508175,-72.956186
1142588558,"LE CLUB DE PÉTANQUE DE LOUISEVILLE","681 boul. Saint-Alexandre","Louiseville (Québec)",NA,"J5V1L5","CLUB DE PÉTANQUE","APE",46.254713,-72.953536
1142556365,"LA FERME FORESTIERE WINCHESTER","4571 rte des Lacs","Saint-Élie-de-Caxton (Québec)",NA,"G0X2N0","CLUB SOCIAL","APE",46.510281,-72.951681
1142569152,"ORGANISME DE JUSTICE ALTERNATIVE VOLTEFACE","1512 av. Saint-Marc","Shawinigan (Québec)",NA,"G9N2H4","Justice réparatrice - Loi sur le système de justice pénale pour les adolescents (LSJPA)  Justice réparatrice - Programme de mesure de rechange général - adultes (PMRG) Service de médiation citoyenne, engagements locaux.","APE",46.550532,-72.745821
1142535526,"Le Traversier","2096 av. des Filles-de-Jésus","Trois-Rivières (Québec)",NA,"G8Z2X2","-","APE",46.348292,-72.553263
1142547992,"L'ASSOCIATION DES PROPRIÉTAIRES DU LAC SOURIS INC.","1690 CH. de la Presqu'Île","Saint-Mathieu-du-Parc (Québec)",NA,"G0X1N0","ASSOCIATION DES PROPRIÉTAIRES","APE",46.577812,-72.980659
1142572149,"SYNDICAT CANADIEN DE LA FONCTION PUBLIQUE, SECTION LOCALE 3624","101-7080 rue Marion","Trois-Rivières (Québec)",NA,"G9A6G4","ÉTUDE/DÉFENSE/DÉVELOPPEMENT INTÉRÊTS ÉCONOMIQUES/SOCIAUX/MORAUX DES MEMBRES","APE",46.325362,-72.580351
1142541029,"SYNDICAT DES PRODUCTEURS DE BOIS DE LA RÉGION DE LA MAURICIE (U.C.C.)","2410 rue de l'Industrie","Trois-Rivières (Québec)",NA,"G8Z4R5","MISE EN MARCHÉ DU BOIS DES LOTS PRIVÉS TOURISME PLEIN AIR,AGROTOURISME ET EVENENTIEL","APE",46.332979,-72.583558
1142564849,"SOCIÉTÉ D'HISTOIRE DE ST-STANISLAS INC.","33E rue du Pont","Saint-Stanislas (Québec)",NA,"G0X3E0","HISTOIRE GÉNÉALOGIE","APE",46.611027,-72.387238
1142528315,"CENTRE DE LA PETITE ENFANCE LA CULBUTE","1450 rue du Père-Marquette","Trois-Rivières (Québec)",NA,"G8Z4N5","SERVICE DE GARDE EN INSTALLATION","APE",46.348202,-72.572336
1142692616,"SOCIÉTÉ D'HISTOIRE ET DE GÉNÉALOGIE DE LOUISEVILLE INC.","369 av. Saint-Laurent","Louiseville (Québec)",NA,"J5V1K4","HISTOIRE GÉNÉALOGIE","APE",46.255425,-72.947161
1142708057,"LOISIRS LES VIEILLES FORGES INC.","10215 boul. des Forges","Trois-Rivières (Québec)",NA,"G9C1B2","ACTIVITÉS DE LOISIRS (CARNAVAL, FÊTE DE QUARTIER)","APE",46.39349,-72.662056
1142672865,"CLUB MAXIME INC.","1441 rue des Acacias","La Tuque (Québec)",NA,"G9X3W7","CLUB SOCIAL","APE",47.412343,-72.778196
1142674283,"Société Saint-Jean-Baptiste locale Centre-de-la-Mauricie","5180 rue du Lac-Bournival","Shawinigan (Québec)",NA,"G9T6P1","PROMOTION DE LA SOUVERAINETÉ DU QUÉBEC FÊTE NATIONALE, ACTIVITÉS PATRIOTIQUES, CULTURELLES, ÉDUCATIVES & SOCIALES","APE",46.622536,-72.72986
1142698407,"MUSÉE DES URSULINES DE TROIS-RIVIÈRES INC.","734 rue des Ursulines","Trois-Rivières (Québec)",NA,"G9A5B5","MUSÉE","APE",46.344798,-72.537166
1142675025,"COUVENT DES CARMES DE TROIS-RIVIÈRES","600 rue Notre-Dame E","Trois-Rivières (Québec)",NA,"G8T4G8","COMMUNAUTÉ RELIGIEUSE","APE",46.366793,-72.500399
1142628735,"FONDATION DU CENTRE D'ACTION BÉNÉVOLE DU RIVAGE","101-1 RUE Fusey","Trois-Rivières (Québec)",NA,"G8T2T2","FONDATION À DES FINS DE BIENFAISANCE","APE",46.365687,-72.526862
1142655662,"ASSOCIATION RÉGIONALE DE SOCCER DE LA MAURICIE","260 rue Dessureault","Trois-Rivières (Québec)",NA,"G8T9T9","DÉVELOPPEMENT DU SOCCER DANS LA RÉGION DE LA MAURICIE","APE",46.378551,-72.527097
1142668053,"LA FABRIQUE DE LA PAROISSE DE SAINT-PATRICK","340 rue Whitehead","Trois-Rivières (Québec)",NA,"G9A3M1","SOUTIEN À L'EXERCICE RELIGION CATHOLIQUE ROMAINE/MAINTIEN ACTES DU CULTE","APE",46.357479,-72.546119
1142656470,"CLUB DE CHASSE & PECHE PACALA INC.","7810 rue des Terrasses-du-Fleuve","Trois-Rivières (Québec)",NA,"G9B1L3","CLUB DE CHASSE ET PÊCHE","APE",46.302256,-72.582409
1142631937,"VELO MAURICIE","1725 rue de Moscou","Trois-Rivières (Québec)",NA,"G8W0E7","ENTRAINEMENT ET COMPÉTITION CYCLISTE","APE",46.386854,-72.567543
1142624213,"CLUB DE VÉLO-CROSS DE CAP-DE-LA-MADELEINE INC.","3770 rue de Florence","Trois-Rivières (Québec)",NA,"G8Y5B9","DÉVELOPPEMENT ET SUPERVISION DES ACTIVITÉS DU VÉLO-CROSS À CAP-DE-LA-MADE.","APE",46.345173,-72.610085
1142651794,"ALLIANCE AUTOCHTONE LA TUQUE","308 rue Saint-Joseph","La Tuque (Québec)",NA,"G9X1L1","SOCIALE CULTURELLE","APE",47.44129,-72.784317
1142626879,"CLUB DE L'AGE D'OR DE SAINT-STANISLAS INC.","33B rue du Pont","Saint-Stanislas (Québec)",NA,"G0X3E0","JEU DE CARTES, RÉUNION SOCIALE AVEC CONFÉRENCIER","APE",46.611027,-72.387238
1142796482,"Table Action Abus Aînés Mauricie, inc.","1-617 boul. du Saint-Maurice","Trois-Rivières (Québec)",NA,"G9A3P3","INFORMATION ET CONCERTATION DES ORGANISMES MEMBRES FAIRE DES ACTIONS POUR PRÉVENIR ET CONTRER LES ABUS","APE",46.348822,-72.551535
1142771972,"ASSOCIATION DES FUTURS RETRAITÉES ET RETRAITÉS DE LA TUQUE (LUCARNE)","525 rue Saint-Eugène","La Tuque (Québec)",NA,"G9X2T5","ASSOCIATION ET CLUBS COMMUNAUTAIRES, SOCIAUX ET CULTURELS","APE",47.439917,-72.781481
1142784934,"CLUB DE L'ÂGE D'OR DE LAC-AUX-SABLES","385 rue Principale","Lac-aux-Sables (Québec)",NA,"G0X1M0","ACTIVITÉES RÉCRÉATIVES","APE",46.859706,-72.397861
1142801092,"La Fabrique de la paroisse de Saint-Laurent-de-la-Moraine","51 rue Principale","Sainte-Geneviève-de-Batiscan (Québec)",NA,"G0X2R0","SOUTIEN À L'EXERCICE DE LA RELIGION CATHOL. ROMAINE, MAINT. ACTES DU CULTE","APE",46.530061,-72.338936
1142756767,"CENTRE DE L'HOMME NOUVEAU","5-3340 rue De Coubertin","Trois-Rivières (Québec)",NA,"G8Y4P4","CHEMINEMENT PERSONNEL","APE",46.342834,-72.592637
1142770297,"Fondation pour la santé du Haut-St-Maurice","576 rue Commerciale","La Tuque (Québec)",NA,"G9X3A9","FONDATION CONSISTANT À LA LEVÉE DE FONDS","APE",47.438592,-72.784772
1142733279,"ASSOCIATION PROVINCIALE DES AGENCES DE SÉCURITÉ (A.P.A.S.)","927 boul. Thibeau","Trois-Rivières (Québec)",NA,"G8T7B1","ASSISTER SCÉANCES COMITÉ PARITAIRE AGENTS SÉCURITÉ/INFORMER MEMBRES LOIS","APE",46.390011,-72.552982
1142770891,"ASSEMBLÉE PÈRE BUTEUX INC.","1800 109e Rue","Shawinigan (Québec)",NA,"G9P2P5","ACTIVITÉS SOCIALES, COMMUNAUTAIRES ET RELIGIEUSES","APE",46.516697,-72.757194
1142745059,"CENTRE DE LA PETITE ENFANCE ENTRE DEUX NUAGES","928 rue Guilbert","Trois-Rivières (Québec)",NA,"G8T5V7","SERVICE DE GARDE","APE",46.39127,-72.552434
1142747923,"FÉDÉRATION DU MOUVEMENT ALBATROS DU QUÉBEC","218-1800 RUE St-Paul","CP G9A1J7","Trois-Rivières (Québec)","G9A1J7","OFFRIR À SES MEMBRES DES SERVICES ESSENTIELS EN MATIÈRE DE FORMATION,.... SOUTENIR LES MEMBRES ET DÉVELOPPER LA VIE ASSOCIATIVE ET LE SENTIMENT......","APE",46.352001,-72.542584
1142763144,"CLUB SOCIAL L'ENTRACTE INC.","1536,rue Sainte-Julie","Trois-Rivières (Québec)","Canada","G9A1Y8","VENTE DE BOISSONS ALCOOLISÉES ET NON ALCOOLISÉES","APE",46.352622,-72.551356
1142764126,"LE CLUB DE L'AGE D'OR DE ST-JUSTIN INC.","475 rue Duchesnay","Saint-Justin (Québec)",NA,"J0K2V0","CRÉER VIE SOCIALE EN RENCONTRANT DIFFÉRENTES PERSONNES METTRE SUR PIED DES ACTIVITÉS SOCIO-CULTURELLES, RÉCRÉATIVES","APE",46.25123,-73.086165
1142765073,"FONDS DE DEVELOPPEMENT ECONOMIQUE CHAMPLAIN INC","497 rue Rochefort","Trois-Rivières (Québec)",NA,"G8T7K5","SOCIÉTÉ D'INVESTISSEMENT","APE",46.372862,-72.535192
1142905794,"ENFANTS TIERS-MONDE (5 5 5)","7385 boul. Parent","Trois-Rivières (Québec)",NA,"G9C0M5","CHARITABLE","APE",46.363185,-72.625741
1142884759,"ASSOCIATION DES RETRAITÉS DE L'UNIVERSITÉ DU QUÉBEC À TROIS-RIVIÈRES (ARUQTR)","3351 boul. des Forges","Trois-Rivières (Québec)",NA,"G8Z4M3","FAVORISER LE BIEN-ÊTRE INDIVIDUEL ET COLLECTIF DES MEMBRES... REPRÉSENTER LES MEMBRES AUPRÈS DE L'UNIVERSITÉ OU DE TOUT AUTRE ORGANISME..","APE",46.348038,-72.57778
1142885459,"CLUB DE L'ÂGE D'OR ST-BONIFACE","150 rue Guimont","Saint-Boniface (Québec)",NA,"G0X2L0","ACTIVITÉS INDÉTERMINÉES ET IMPRÉCISES","APE",46.503325,-72.830702
1142854745,"L'ASSOCIATION DU CHEMIN DE L'ERMITAGE","3 ch. de l'Ermitage","Shawinigan (Québec)",NA,"G9T5W1","ENTRETIEN DU CHEMIN EXISTANT (LE GRAVELÉ, LE DÉFRICHER)","APE",46.593029,-72.6673
1142855148,"LES OBLATES MISSIONNAIRES DE MARIE IMMACULÉE","7625 boul. Parent","Trois-Rivières (Québec)",NA,"G9C0M5","OEUVRES APOSTOLIQUES AU CANADA ET À L'ÉTRANGER, SOUTIEN TRAV. MEMBRES ETC.","APE",46.3657,-72.629336
1142855148,"LES OBLATES MISSIONNAIRES DE MARIE IMMACULÉE","7625 boul. Parent","Trois-Rivières (Québec)",NA,"G9C0M5","OEUVRES APOSTOLIQUES AU CANADA ET À L'ÉTRANGER, SOUTIEN TRAV. MEMBRES ETC.","APE",46.3657,-72.629336
1142821272,"LA MAISON DES JEUNES AU COEUR DES MONTAGNES","251 rue Saint-Pierre","Saint-Élie-de-Caxton (Québec)",NA,"G0X2N0","MAISON DES JEUNES","APE",46.487,-72.960872
1142960468,"CLUB DE L'ÂGE D'OR DE ST-ÉTIENNE-DES-GRÈS","1260A rue Saint-Alphonse","Saint-Étienne-des-Grès (Québec)",NA,"G0X2P0","ACTIVITÉS DES AÎNÉS : PÉTANQUE, CARTES","APE",46.441862,-72.771299
1142980847,"LE CENTRE DE RENAISSANCE CATHOLIQUE DES LAURENTIDES","255 CH. de la Réserve","Shawinigan (Québec)",NA,"G9N0B8","ACTIVITÉS RELIGIEUSES ET CIVIQUES","APE",46.550607,-72.77996
1142982223,"RESSOURCE PARENT-AILES","752 boul. Ducharme","La Tuque (Québec)",NA,"G9X3B6","RENCONTRES COMMUNAUTAIRES, ACTIVITÉS FAMILIALES, PARENTS OU PARENTS/ENFANT","APE",47.432738,-72.78471
1142982348,"CLUB DE L'AGE D'OR AFFILIÉ DE ST-ROCH DE MÉKINAC","1455 rte Ducharme","Saint-Roch-de-Mékinac (Québec)",NA,"G0X2E0","Lieu de rencontre pour les personnes âgées pour leur éviter l'isolement, souper dansant et jeux","APE",46.815149,-72.767974
1142996561,"ASSOCIATION DES PROPRIETAIRES DU LAC BELLEVUE INC.","351, RUE HÉRONS","NOTRE-DAME-DU-MONT-CARMEL (QUÉBEC)",NA,"G0X3J0","ASSOCIATIONS DE PROPRIÉTAIRES","APE",46.463815,-72.712595
1142996694,"AGE D'OR DE STE-FLORE","4161 ch. de Sainte-Flore","Shawinigan (Québec)",NA,"G9T1A6","CLUBS D'ÂGE D'OR","APE",46.61037,-72.74156
1142962654,"LA COOPÉRATIVE D'HABITATION DU FLEUVE DE TROIS-RIVIÈRES-OUEST","9-130 RUE Sirois","Trois-Rivières (Québec)",NA,"G9A2X6","FOURNIT DES SERVICES DE LOCATION À SES MEMBRES","COP",46.323601,-72.561743
1142963173,"CINÉ-CAMPUS (TROIS-RIVIÈRES) INC.","858 rue Laviolette","Trois-Rivières (Québec)",NA,"G9A5J1","FAIRE CONNAÎTRE ET AIMER LE CINÉMA DE QUALITÉ","APE",46.349071,-72.544762
1142964189,"CENTRE D'AIDE AUX VICTIMES D'ACTES CRIMINELS DE LA MAURICIE","104-950 rue Royale","Trois-Rivières (Québec)",NA,"G9A4H8","INTERVENTION VICTIMES ACTES CRIMINELS/INFO.ACCOMPAGNEMENT RÉFÉRENCES","APE",46.339595,-72.545861
1142951095,"SOCIÉTÉ ST-JEAN-BAPTISTE LOCALE DE SAINT-ETIENNE DES GRÈS","721 rue Principale","Saint-Étienne-des-Grès (Québec)",NA,"G0X2P0","ASSEMBLÉE GÉNÉRALE / DIVERSES ACTIVITÉS DE GROUPE","APE",46.430461,-72.760719
1142930636,"LES FILLES DE JÉSUS (TROIS-RIVIÈRES)","2392 8e Avenue","Trois-Rivières (Québec)",NA,"G8Z3L8","RELIGION / CHARITÉ","APE",46.355414,-72.559261
1142931659,"ASSOCIATION DE BASKETBALL DE TROIS-RIVIÈRES INC.","6455 rue Notre-Dame O","Trois-Rivières (Québec)",NA,"G9A5A6","ORGANISATION DU BASKET-BALL À TROIS-RIVIÈRES","APE",46.316623,-72.569158
1142919795,"FONDATION KERANNA INC.","6205 boul. des Chenaux","Trois-Rivières (Québec)",NA,"G8Y6Z1","SOUTENIR PROJET ÉDUCATIF/FAVORISER ACCESSIBILITÉ INSTITUT JEUNE DANS BESOIN","APE",46.358473,-72.604883
1142933903,"FONDS ÉLISABETH","2392 8e Avenue","Trois-Rivières (Québec)",NA,"G8Z3L8","CHARITÉ / RELIGION","APE",46.355414,-72.559261
1142934315,"L'ORCHESTRE SYMPHONIQUE DE TROIS-RIVIERES INC.","100-190 RUE Bonaventure","CP 1281","Trois-Rivières (Québec)","G9A5K8","PRODUCTION ET DIFFUSION DE CONCERTS SYMPHONIQUES","APE",46.344466,-72.54447
1142935288,"CLUB DE CHASSE & PECHE CAMP OURS NOIR INC.","1815 rue Émile-Tellier","Trois-Rivières (Québec)",NA,"G8Y5L6","CHASSE ET PECHE","APE",46.370704,-72.616977
1142935551,"COUP DE MAIN MAURICIE","1515 RUE Sainte-Marguerite","CP 100","Trois-Rivières (Québec)","G9A5E7","SERV. D'INTÉGRATION  POUR ADULTES (DÉFICIENCE MOTRICE)","APE",46.343253,-72.557916
1142911727,"ASSOCIATION DE CHASSE ET DE PÊCHE DE LA RIVIÈRE BOSTONNAIS NORD INC.","1060 rang Saint-Pierre S","Hérouxville (Québec)",NA,"G0X1J0","CHASSE & PÊCHE / CAMPING","APE",46.673763,-72.613636
1143051309,"FONDATION DU CÉGEP DE TROIS-RIVIÈRES","3500 RUE De Courval","CP 97","Trois-Rivières (Québec)","G9A5E6","OEUVRE DE CHARITÉ","APE",46.354733,-72.573298
1143052091,"ASSOCIATION SOCIALE SHAWENEGAN INC.","7250 boul. Saint-Jean","CP 161 succ. B","Trois-Rivières (Québec)","G9A5G1","RENCONTRE FRATERNELLE (SOCIALE)","APE",46.33531,-72.56099
1143073253,"GROUPEMENT POUR LA DÉFENSE DES DROITS SOCIAUX DE TROIS-RIVIÈRES","1060 rue Saint-François-Xavier","Trois-Rivières (Québec)",NA,"G9A1R8","Organisme communautaire autonome de défense collective des droits.","APE",46.350513,-72.545365
1143053644,"CLUB DE CHASSE & PECHE PANDORA INC.","4030 rue de l'Hôtel-de-Ville","Notre-Dame-du-Mont-Carmel (Québec)",NA,"G0X3J0","CLUB DE CHASSE ET PÊCHE","APE",46.474375,-72.67906
1143087287,"SYNDICAT DE L'ENSEIGNEMENT DES VIEILLES-FORGES","4160 rue Jacques-De Labadie","Trois-Rivières (Québec)",NA,"G8Y1T7","SYNDICALISME","APE",46.356348,-72.585487
1143056019,"SOCIETE SAINT-JEAN-BAPTISTE LOCALE DE ST-STANISLAS","21 rue Bouchard","Saint-Stanislas (Québec)",NA,"G0X3E0","SAUVEGARDE LANGUE FRANÇAISE/PROMOUVOIR LE PATRIOTISME DANS NOTRE MILIEU","APE",46.615257,-72.383498
1143057595,"CLUB DE L'ÂGE D'OR DE ST-MAURICE INC.","2431, SAINT-JEAN","SAINT-MAURICE (QUÉBEC)",NA,"G0X2X0","Jeu de palets PÉTANQUE","APE",46.468478,-72.531872
1143059435,"FONDATION LOUIS-MARIE PARENT","7385 boul. Parent","Trois-Rivières (Québec)",NA,"G9C0M5","RELIGIEUSE ET MISSIONNAIRE","APE",46.363185,-72.625741
1143026178,"COOPÉRATIVE DE SOLIDARITÉ SANTÉ LES GRÈS","202-190 rue Saint-Honoré","Saint-Étienne-des-Grès (Québec)",NA,"G0X2P0","EXPLOITER ENTREPRISE EN VUE DE FOURNIR TRAVAIL À SES MEMBRES, BIENS, ETC.","COP",46.442927,-72.770441
1143017714,"LES ATELIERS ET L'ORCHESTRE SYMPHONIQUE DE JEUNES PHILIPPE-FILION","2100 boul. des Hêtres","Shawinigan (Québec)",NA,"G9N8R8","CONCERT ET CAMP MUSICAL","APE",46.559375,-72.748345
1143028901,"LE DOMAINE DE ST-PAULIN INCORPORÉ","161 rue du Petit-Lac-Rose","Saint-Élie-de-Caxton (Québec)",NA,"G0X2N0","EXPLOITATION D'UN DOMAINE RÉCRÉATIF","APE",46.504476,-72.977449
1143018258,"ASSOCIATION DES DIPLÔMÉS DE L'UNIVERSITÉ DU QUÉBEC À TROIS-RIVIÈRES","3351 BOUL. DES FORGES","CP C.P. 500","TROIS-RIVIÈRES (Québec)","G9A5H7","REGROUPEMENTS DE DIPLÔMÉS, SERVICES AUX MEMBRES","APE",46.348038,-72.57778
1142998682,"FONDATION LE PARRAINAGE INC.","1775 RUE Nicolas-Perrot","Trois-Rivieres (Québec)",NA,"G9A1C5","FONDATION","APE",46.358504,-72.547456
1143010826,"SOCIETE SAINT JEAN BAPTISTE LOCALE DE LES VIEILLES FORGES","11720 boul. des Forges","Trois-Rivières (Québec)",NA,"G9A5E1","FÊTE NATIONALE, ACTIVITÉS SOCIALES, CULTURELLES ET ÉDUCATIVES","APE",46.405363,-72.688506
1143139666,"ASSOCIATION DES RESIDENTS DU LAC VERGNE INC.","2420 rue du Lac-Vergne","Shawinigan (Québec)",NA,"G9T6P9","ASSOCIATION REGROUPANT RÉSIDENTS D'UN LAC POUR ACTIVITÉS & ENTRETIEN DU LAC","APE",46.603549,-72.741407
1143172576,"Centre d'intervention en dépendances Adrienne-Roy","2092 rue Lavergne","Shawinigan (Québec)",NA,"G9N3S9","AIDE AUX TOXICOMANES AVEC SUIVI","APE",46.563592,-72.745384
1143140896,"ASSOCIATION DES LOISIRS BEAURIVAGE DE SHAWINIGAN INC.","11113 av. du Beau-Rivage","Shawinigan (Québec)",NA,"G9N6T6","LOISIRS","APE",46.584606,-72.678098
1143142025,"CLUB DE PHOTO MAURICIEN INC.","3070 rue Talbot","Trois-Rivières (Québec)",NA,"G8Y2J5","PROMOUVOIR LA PHOTOGRAPHIE, FORMATION DES MEMBRES","APE",46.347672,-72.592154
1143175629,"CENTRE DE LA PETITE ENFANCE LE COFFRE À JOUETS","260 rue Vachon","Trois-Rivières (Québec)",NA,"G8T8Y2","SERVICE DE GARDE","APE",46.374045,-72.552191
1143133925,"CLUB HOSPITALIER INC.","1315 rue Paul-Émile","Saint-Boniface (Québec)",NA,"G0X2L0","LOISIRS ET RÉCRÉATION","APE",46.484869,-72.837906
1143136902,"FONDATION DES CADETS DE TROIS-RIVIÈRES INC.","574 rue Saint-François-Xavier","Trois-Rivières (Québec)",NA,"G9A1R6","RECEVOIR DES DONS DU PUBLIC ET D'ORGANISMES RECONNUS, ORGANISER DES ACTIVITÉS DE FINANCEMENT DÉDIÉ À L'ÉPANOUISSEMENT DES CADETS (TERRE, NAVAL ET AIR) DE LA RÉGION DE TROIS-RIVIÈRES.","APE",46.347749,-72.541924
1143168236,"CENTRE DE LA PETITE ENFANCE LE CERF-VOLANT INC.","925 rue Tousignant","Trois-Rivières (Québec)",NA,"G8V2R7","TENIR UN CENTRE DE LA PETITE ENFANCE CONFORMÉMENT À LA LOI SUR LES CENTRES DE LA PETITE ENFANCE ET AUTRES SERV. DE GARDE À L'ENFANCE OFFRIR AUTRE SERV","APE",46.396813,-72.543544
1143168418,"CLUB PLEIN AIR SPEC INC.","3183 av. de la Montagne","Shawinigan (Québec)",NA,"G9N6K5","ASSOCIATION FAMILIALE VOUÉE À DES ACTIVITÉS RÉCRÉATIVES ET DE PLEIN AIR","APE",46.578859,-72.759917
1143168970,"Les Producteurs de bovins de la Mauricie","230 rue Vachon","Trois-Rivières (Québec)",NA,"G8T8Y2","SYNDICALISME AGRICOLE","APE",46.374435,-72.551127
1143170257,"CLUB DE MOTONEIGE MASTIGOUCHE INC.","331 rue Notre-Dame","Saint-Alexis-des-Monts (Québec)",NA,"J0K1V0","MOTONEIGE ET ACTIVITÉS DE PLEIN AIR","APE",46.457264,-73.14571
1143149251,"ATIKAMEKW SIPI - CONSEIL DE LA NATION ATIKAMEKW","Wemotaci","Wemotaci (Québec)",NA,"G0X3R0","SERV INDIENS-DÉVEP SOCIAL CULTUREL ÉDUCAT ÉCO & NÉGOCIATION AUTONOMIE GOUVE","APE",47.90188,-73.768681
1143115344,"CENTRE DE FORMATION COMMUNAUTAIRE DE LA MAURICIE (CFCM)","205-399A boul. Sainte-Madeleine","Trois-Rivières (Québec)",NA,"G8T3M7","FORM. DES MEMBRES, BÉNÉ. INTERVENANTS(ES) DES GROUPES COMM. DE LA RÉGION","APE",46.368417,-72.50573
1143095298,"CLUB OPTIMISTE DE ST-BONIFACE INC.","600 rue du Christ-Roi","Saint-Boniface (Québec)",NA,"G0X2L0","CLUB DE SERVICE, AIDE À LA JEUNESSE","APE",46.492963,-72.828668
1143116789,"CLUB MOTONEIGE ARMONY TROIS-RIVIÈRES INC.","296 rue Gérin-Lajoie","Yamachiche (Québec)",NA,"G0X3L0","ENTRETIEN DE SENTIERS DE MOTONEIGE","APE",46.274725,-72.841129
1143130152,"CENTRE DE PRIÈRE L'ALLIANCE INC.","7505 boul. Parent","Trois-Rivières (Québec)",NA,"G9C0M5","ÉDUQUER MEMBRES ET PUBLIC À LA FOI, LA PRIÈRE, À LA VIE CHRÉTIENNE ET CHARISMATIQUE","APE",46.365118,-72.628262
1143131077,"Vieux presbytère de Batiscan","340 rue Principale","Batiscan (Québec)",NA,"G0X1A0","FONDATION, MUSÉE, SITE HISTORIQUE","APE",46.482108,-72.25822
1143087865,"CLUB DE CHASSE ET PÊCHE ETTEZAG","79 rue De Grandmont","Trois-Rivières (Québec)",NA,"G8T2P5","CLUB DE CHASSE ET PÊCHE","APE",46.369774,-72.528515
1143099381,"TOURNOI PROVINCIAL A.P.B.M. ST-TITE","425 boul. Saint-Joseph","Saint-Tite (Québec)",NA,"G0X3H0","ORGANISATION ANNUELLE D'UN ÉVÉNEMENT SPORTIF","APE",46.730752,-72.560561
1143120641,"CENTRE D'ACTION BÉNÉVOLE LAVIOLETTE","929 rue du Père-Daniel","Trois-Rivières (Québec)",NA,"G9A2W9","PROMOUVOIR L'ACTION BÉNÉVOLE ORGANISER DES SERVICES D'AIDE AUX INDIVIDUS","APE",46.334002,-72.558807
1143090398,"AGE D'OR ST-THOMAS-DE-CAXTON","401 AVE St-Thomas-de-Caxton","St-Barnabé-Nord (Québec)",NA,"G0X2K0","SOCIAL, DINER, BINGO, PETANQUE, MESSE DU MOIS LOISIRS, JEUX, CARTES, SOUPER-FÊTES DE PAROISSE","APE",46.368374,-72.791757
1143100544,"La Fabrique de la paroisse de Sainte-Marie-de-l'Incarnation","499 av. de Grand-Mère","Shawinigan (Québec)",NA,"G9T2H3","SOUTIEN À L'EXERCICE DE LA RELIGION CATHOLIQUE ROMAINE ET ACTES DE CULTE","APE",46.615679,-72.689679
1143248301,"AGE D'OR ST-GERARD DES LAURENTIDES","430 rue des Trembles","Shawinigan (Québec)",NA,"G9R1R2","AIDER LES PERSONNES AGÉES, FAIRE DES ACTIVITÉS - DANSES - VOYAGES","APE",46.603772,-72.81413
1143237643,"FONDATION DU SÉMINAIRE SAINTE-MARIE INC.","5655 boul. des Hêtres","Shawinigan (Québec)",NA,"G9N4V9","PROM. ET ADM. UNE ORGANIS. DE CHARITÉ, SOLLICITER ET RECEVOIR DES DONATIONS","APE",46.575017,-72.728811
1143238328,"TRANSPORTEURS EN VRAC DE LAVIOLETTE INC.","120-7175 RUE Marion","Trois-Rivières (Québec)",NA,"G9A5Z9","Courtier en transport en vrac","APE",46.325362,-72.580351
1143228220,"ORGANISATION DE RECHERCHES INTERACTIVES EN ASTROLOGIE NATURELLE (ORIAN)","2300 ch. Principal","Shawinigan (Québec)",NA,"G9R1E9","ORGANISATION CIVIQUE ET AMICALE","APE",46.634994,-72.850244
1143228584,"LE SYNDICAT DE L'U.P.A. DE MÉKINAC","230 rue Vachon","Trois-Rivières (Québec)",NA,"G8T8Y2","SYNDICALISME AGRICOLE","APE",46.374435,-72.551127
1143219856,"La Relève agricole de la Mauricie (RAM)","230 rue Vachon","Trois-Rivières (Québec)",NA,"G8T8Y2","SYNDICALISME AGRICOLE","APE",46.374435,-72.551127
1143241728,"LA FONDATION FOYER DE LA PÉRADE INC.","60 rue de la Fabrique","Sainte-Anne-de-la-Pérade (Québec)",NA,"G0X2J0","AMÉLIORATION DES CONDITIONS DE VIE DES BÉNÉFICIAIRES DU FOYER","APE",46.573504,-72.203758
1143231810,"REGROUPEMENT D'ORGANISMES DE PROMOTION POUR PERSONNES HANDICAPÉES - RÉGION MAURICIE","37-1322 rue Sainte-Julie","Trois-Rivières (Québec)",NA,"G9A1Y6","SOUTIEN TECH. AUX ASS. DE PERS. HANDICAPÉS, CONCERTATION ENTRE ASSOCIATION","APE",46.349281,-72.54774
1143243435,"L'ASSOCIATION DES RIVERAINS DU LAC V'LIMEUX INC.","191 av. Forman","Shawinigan (Québec)",NA,"G9T2T5","ENTRETIEN DE CHEMIN","APE",46.617327,-72.683204
1143243955,"LES ECRITS DES FORGES","992A rue Royale","Trois-Rivières (Québec)",NA,"G9A4H9","ÉDITION DU LIVRE","APE",46.345232,-72.542945
1143244383,"FONDATION LES FORGES INC.","1497, RUE LAVIOLETTE CP 335","TROIS-RIVIÈRES (QUÉBEC)",NA,"G9A5G4","PROMOTION DES POÈTES ET DE LA POÉSIE ÉDUCATION À LA POÉSIE","APE",46.352801,-72.550558
1143223486,"CENTRE D'ACTION BÉNÉVOLE DE LA MRC DE MASKINONGÉ","624 av. Dalcourt","Louiseville (Québec)",NA,"J5V2Z6","SERVICES D'AIDE ET PROMOTION DU BÉNÉVOLAT","APE",46.260953,-72.953821
1143214329,"EDITIONS COMMUNAUTAIRES DES CHENAUX","220-44 rang de la Rivière-à-Veillet","Sainte-Geneviève-de-Batiscan (Québec)",NA,"G0X2R0","AUTRES IND. D'IMPRESSION & EDITION COMBINÉE","APE",46.564545,-72.341041
1143203868,"CLUB WASKOK","690 av. Angus","Shawinigan (Québec)",NA,"G9T3A2","CLUB COMMUNAUTAIRE SOCIAL CULTUREL","APE",46.609886,-72.687487
1143194935,"TRANSPORTEURS EN VRAC DE LA RÉGION 04 INC.","120-7175 RUE Marion","Trois-Rivières (Québec)",NA,"G9A5Z9","COURTIER EN TRANSPORT","APE",46.325362,-72.580351
1143195510,"LES COEURS VAILLANTS DE ST-SÉVERIN","876 rue des Pionniers","Saint-Séverin (Québec)",NA,"G0N1V0","PARTIES DE CARTES 2 FOIS SEMAINE JEUX DE POCHES, RENCONTRES SOCIALES, DANSE","APE",46.327053,-71.052394
1143186063,"CHALET DE LA RIVIÈRE BATISCAN INC.","604-8 rue Duplessis","Trois-Rivières (Québec)",NA,"G8T0E1","CENTRE RÉCRÉATIF","APE",46.365061,-72.532875
1143196542,"ASSOCIATION D'ARTISTES- PEINTRES DU CENTRE-MAURICIE","386 av. de Grand-Mère","Shawinigan (Québec)",NA,"G9T2P8","ASSOCIATIONS ET CLUB COMMUNAUTAIRE, SOCIAUX ET CULTURELS","APE",46.616466,-72.689863
1143187947,"COOPÉRATIVE D'HABITATION DES TROIS PÈLERINS","3-580 rue Forget","Trois-Rivières (Québec)",NA,"G8T6C8","SERVICE DE LOCATION","COP",46.383706,-72.542743
1143208396,"L'ASSOCIATION DES RÉSIDANTS POUR LA PROTECTION DU LAC-AUX-SABLES","1100 ch. Beaupré","Lac-aux-Sables (Québec)",NA,"G0X1M0","PROTECTION DE L'ENVIRONNEMENT ET FORMATION SUR L'ENVIRONNEMENT","APE",46.92857,-72.405002
1143188234,"SERVICE D'AIDE AU CONSOMMATEUR-REGION 04","1497 105e Avenue","Shawinigan (Québec)",NA,"G9P1M4","services aux consommateurs: activités d'éducation, de représentation et défenses des droits des consommateurs","APE",46.522652,-72.749113
1143209071,"CLUB MARCEL CRETE INC.","100 6e Rue","Shawinigan (Québec)",NA,"G9T4P5","ÉTABLISSEMENT DE VILLÉGIATURE","APE",46.615278,-72.692097
1143199876,"COMITE D'ENTRAIDE DE ST-LOUIS- DE-FRANCE","101 rue Josée","Trois-Rivières (Québec)",NA,"G8W1K4","SUPPORT AUX PERSONNES DÉMUNIES DE LA PAROISSE VISITE AUX PERSONNES ÂGÉES","APE",46.38627,-72.574301
1143213172,"PLACE TROIS-RIVIÈRES","1160 terr. Turcotte","Trois-Rivières (Québec)",NA,"G9A5C6","PROPRIÉTÉ D'IMMEUBLES","APE",46.342267,-72.537686
1143182518,"SOCIÉTÉ D'HISTOIRE ET DE GÉNÉALOGIE DE SHAWINIGAN","4455, AV. Jean-Duchesne,","CP 1431","Shawinigan-Sud (Québec)","G9P4R2","REGROUPER LES PERS. INTÉRESSÉES. AU PATRIMOINE NATUREL ET CULT. ETC. GÉNÉALOGIE","APE",46.502388,-72.717748
1143213719,"RÉSIDENCES POPULAIRES TRIFLUVIENNES","1160 terr. Turcotte","Trois-Rivières (Québec)",NA,"G9A5C6","PROPRIÉTÉ D'IMMEUBLES","APE",46.342267,-72.537686
1143337815,"TRANSPORTEURS EN VRAC DE CHAMPLAIN INC.","120-7175 RUE Marion","Trois-Rivières (Québec)",NA,"G9A5Z9","CAMIONNAGE EN VRAC","APE",46.325362,-72.580351
1143318435,"FONDATION D'AIDE AUX AINÉS JULIETTE M. DUBOIS","44, RIVIÈRE-À-VEILLET","SAINTE-GENEVIÈVE-DE-BATISCAN (QUÉBEC)",NA,"G0X2R0","FONDATIONS","APE",46.539736,-72.341331
1143293422,"LES ÉLANS DE TROIS-RIVIERES, CLUB DE PATINAGE DE VITESSE INC.","260 rue Dessureault","Trois-Rivières (Québec)",NA,"G8T9T9","CLUB DE PATINAGE DE VITESSE LES ÉLANS DE TROIS-RIVIÈRES INC.","APE",46.378551,-72.527097
1143273267,"CLUB DE KARATÉ DE TROIS-RIVIÈRES INC.","299 rue De Grandmont","Trois-Rivières (Québec)",NA,"G8T2R5","PROMOUVOIR ET DÉVELOPPER KARATÉ DE QUALITÉ ET SÉCURITAIRE","APE",46.375815,-72.519174
1143284249,"Producteurs et productrices acéricoles de la Mauricie","230 rue Vachon","Trois-Rivières (Québec)",NA,"G8T8Y2","SYNDICALISME AGRICOLE","APE",46.374435,-72.551127
1143274810,"CLUB MOOSE-SIPI INC.","901 rue du Marais","Trois-Rivières (Québec)",NA,"G8W1Y6","CLUB CHASSE ET PÊCHE","APE",46.404553,-72.58172
1143285535,"Amétiss club de gymnastique","554 boul. Saint-Laurent E","Louiseville (Québec)",NA,"J5V1H9","PROMOUVOIR-DÉVELOPPER GYMNASTIQUE, FAVORISER-STIMULER L'INTÉRÊT DES JEUNES","APE",46.256935,-72.926442
1143297779,"CENTRE DE LA PETITE ENFANCE LA BOTTINE SOURIANTE","4895 boul. de Shawinigan-Sud","Shawinigan (Québec)",NA,"G9N6T5","GARDERIE - SERVICE DE GARDE EN MILIEU FAMILIAL","APE",46.493651,-72.713092
1143266105,"LE JARDIN CHRISTOPHE CREVIER","7-4245 rue Laurent-Létourneau","Trois-Rivières (Québec)",NA,"G8Y5W4","JARDINS COMMUNAUTAIRES POUR LA CULTURE POTAGÈRE","APE",46.345535,-72.58951
1143268143,"CLUB BUTEUX INC.","1495 rue de la Grande-Maison","Trois-Rivières (Québec)",NA,"G8Y6H4","CLUB DE CHASSE ET PÊCHE","APE",46.38826,-72.622714
1143278480,"EGLISE AMBASSADEUR POUR CHRIST INC.","563 7e rue de la Pointe","Shawinigan (Québec)",NA,"G9N1C6","PRÉDICATION DE LA PAROLE DE DIEU LA BIBLE MUSIQUE CHANT POUR SE RÉJOUIR","APE",46.541774,-72.749074
1143278761,"SOCIÉTÉ D'HISTOIRE DE SAINT-NARCISSE","93 rang du Bas-de-la-Grande-Ligne","Saint-Narcisse (Québec)",NA,"G0X2Y0","ANIMATION - CONSERVATION PATRIMOINE, EXPOSITION PHOTOS & OBJETS ANCIENS VISITE DE LA MAISON DUPONT CONSTRUITE EN 1871","APE",46.551895,-72.452838
1143425297,"LA FONDATION DU COLLÈGE LAFLÈCHE INC.","1687 boul. du Carmel","Trois-Rivières (Québec)",NA,"G8Z3R8","FONDATION","APE",46.356327,-72.561886
1143425719,"CLUB OPTIMISTE STE-MARTHE DU CAP INC.","3560 rue Notre-Dame E","Trois-Rivières (Québec)",NA,"G8V1Z2","CLUB DE SERVICES À BUT NON LUCRATIF, AIDE À LA JEUNESSE","APE",46.397736,-72.443738
1143419209,"ASSOCIATION DU QUÉBEC POUR ENFANTS AVEC PROBLÈMES AUDITIFS MAURICIE-CENTRE-DU-QUÉBEC INC.","110A rue des Forges","Trois-Rivières (Québec)",NA,"G9A2G8","-","APE",46.341995,-72.540651
1143421049,"MONIALES CARMÉLITES","800 av. des Draveurs","Trois-Rivières (Québec)",NA,"G9A0G2","Nous nous livrons aux oeuvres de piété, de miséricorde et de charité. Nous rencontrons des groupes de jeunes en quête de sens à donner à leur vie. Nous accueillons et tenons un secrétariat pour secourir et encourager des personnes affligées","APE",46.349465,-72.535639
1143432152,"CLUB AGE D'OR BATISCAN INC.","181 rue de la Salle","Batiscan (Québec)",NA,"G0X1A0","RENCONTRES DIALOGUE","APE",46.497869,-72.255958
1143422567,"Mouvement d'Action Solidaire des Sans-Emploi des Chenaux Inc.","44 rang de la Rivière-à-Veillet","Sainte-Geneviève-de-Batiscan (Québec)",NA,"G0X2R0","ORGANISATIONS CIVIQUES & AMICALES","APE",46.564545,-72.341041
1143389741,"CLUB CAFRI INC.","380 rue Saint-Louis","Yamachiche (Québec)",NA,"G0X3L0","RÉCRÉATION CHASSE PÊCHE","APE",46.281288,-72.835639
1143390608,"Agricultrices de la Mauricie","230 rue Vachon","Trois-Rivières (Québec)",NA,"G8T8Y2","SYNDICALISME AGRICOLE","APE",46.374435,-72.551127
1143392968,"LA CORPORATION DE LA MAISON DES JEUNES ""ACTION-JEUNESSE"" INC.","5585 RUE Jean-Paul Lavergne","Trois-Rivières (Québec)",NA,"G8Y3Y5","LIEU ADAPTÉ POUR LES JEUNES DE 12-17 ANS, MAISON DES JEUNES","APE",46.356924,-72.606752
1143384668,"LES PETITS CHANTEURS DE TROIS-RIVIÈRES INC.","725 rue Hart","Trois-Rivières (Québec)",NA,"G9A4R9","Enseignement musical en solfège, instrument et chant choral aux élèves de la maternelle, du primaire et du secondaire","APE",46.346344,-72.537946
1143353655,"SYNDICAT CANADIEN DE LA FONCTION PUBLIQUE, SECTION LOCALE 3423","1325 PLACE de l'Hôtel de ville","CP 368","Trois-Rivières (Québec)","G9A5H3","ÉTUDE, DÉFENSE ET DÉVELOPPEMENT DES INTÉRÊTS ÉCONOMIQUES, SOCIAUX ET MORAUX","APE",46.342939,-72.543433
1143377852,"COMITE DE LOISIRS DE LAC AUX SABLES INC.","820 rue Saint-Alphonse","Lac-aux-Sables (Québec)",NA,"G0X1M0","PROMOUVOIR LES LOISIRS DANS LA MUNICIPALITÉ","APE",46.859055,-72.400153
1143378785,"SYNDICAT DE L'ENSEIGNEMENT DE LA MAURICIE (S.E.M.)","840 av. de Saint-Georges","Shawinigan (Québec)",NA,"G9T5K4","SYDICALISME","APE",46.627339,-72.648388
1143490960,"CLUB DE CANOT KAYAK RADISSON INC.","805-1400 av. des Draveurs","Trois-Rivières (Québec)",NA,"G9A0E4","CLUB DE CANOT-KAYAK","APE",46.348699,-72.534934
1143511641,"CLUB DE L'AGE D'OR SAINT-JEAN-DES-PILES INC.","1596 ch. de Saint-Jean-des-Piles","Shawinigan (Québec)",NA,"G0X2V0","SOCIALE POUR GENS DU 3E ÂGE","APE",46.691988,-72.740428
1143522564,"CORPORATION DE DEVELOPPEMENT DE SAINT-TITE INC.","403-575 rue des Canots","Shawinigan (Québec)",NA,"G9T0H1","ASSOCIATION COMMERCIALE","APE",46.638939,-72.67832
1143503705,"LES FEMMES DYNAMIQUES DE CAP-DE-LA-MADELEINE INC.","440 rue Alphonse-Piché","Trois-Rivières (Québec)",NA,"G8V2S8","CULTURELLE, FORMER, RECRÉER","APE",46.383029,-72.498997
1143513936,"LE SÉMINAIRE STE-MARIE DE SHAWINIGAN","5655 boul. des Hêtres","Shawinigan (Québec)",NA,"G9N4V9","L'INSTRUCTION ET L'ÉDUCATION DES JEUNES GENS","APE",46.575017,-72.728811
1143525286,"LA SOCIÉTÉ SAINT-VINCENT DE PAUL DE TROIS-RIVIÈRES","2580 rue Royale","Trois-Rivières (Québec)",NA,"G9A4L5","DISTRIBUTION D'AIDE PÉCUNIAIRE AUX NÉCESSITEUX","APE",46.334293,-72.549379
1143516731,"SERVICE VIE-AMOUR INC.","2520 rue La Jonquière","Trois-Rivières (Québec)",NA,"G8Z2L6","Enseignement méthode de l'ovulation Billings TM - régulation naturelle des naissances / formation, encadrement","APE",46.340768,-72.568874
1143506815,"CENTRE D'ORGANISATION MAURICIEN DE SERVICES ET D'EDUCATION POPULAIRE (C.O.M.S.E.P.)","250-1060 rue Saint-François-Xavier","Trois-Rivières (Québec)",NA,"G9A1R8","ÉDUCATION POPULAIRE / ALPHABÉTISATION POPULAIRE","APE",46.350433,-72.545267
1143487792,"SOCIETE D'HISTOIRE DE LAC-AUX-SABLES ET D'HERVEY-JONCTION","40 rue Bourassa","Lac-aux-Sables (Québec)",NA,"G0X1M0","RECHER.HISTORI.SUR HIST. DE LA PAROISSE. ÉTABL.& RÉAL. FÊTES CENTEN.& LIVRE","APE",46.865824,-72.386678
1143498864,"ASSOCIATION DES CLUBS DE PATINAGE ARTISTIQUE DE LA MAURICIE INC.","260 rue Dessureault","Trois-Rivières (Québec)",NA,"G8T9T9","ASSOCIATION RÉGIONALE DES CLUBS DE PATINAGE ARTISTIQUE","APE",46.378551,-72.527097
1143449354,"COLLÈGE LAFLÈCHE","1687 boul. du Carmel","Trois-Rivières (Québec)",NA,"G8Z3R8","ENSEIGNEMENT ET ÉDUCATION FORMATION SUR MESURE","APE",46.356327,-72.561886
1143460799,"ASSOCIATION QUÉBÉCOISE DE DÉFENSE DES DROITS DES PERSONNES RETRAITÉES ET PRÉRETRAITÉES, A.Q.D.R. SECTION SHAWINIGAN","520 av. Broadway","Shawinigan (Québec)",NA,"G9N1M3","DÉFENDRE DROITS PERSON. RETRAITÉ DU CENTRE EN UNION AVEC L'AQDR PROVINCIAL TRANSFORMER LES CONDITIONS DE VIE À LA RETRAITE","APE",46.541028,-72.743624
1143475094,"Centre Roland-Bertrand","1895 av. Champlain","Shawinigan (Québec)",NA,"G9N0G4","CENTRE DE SERVICES SOCIAUX","APE",46.553791,-72.744514
1143464718,"ASSOCIATION SPORTIVE ET ECOLOGIQUE DE LA BATISCAN INC.","691 rue Principale","Batiscan (Québec)",NA,"G0X1A0","PROTECTION DE L'ENVIRONNEMENT, GESTION DE MILIEUX HUMIDES.","APE",46.495705,-72.252327
1143476332,"ASSOCIATION DE LA FIBROMYALGIE MAURICIE / CENTRE-DU-QUÉBEC","330-1060 rue Saint-François-Xavier","Trois-Rivières (Québec)",NA,"G9A1R8","INFORMATION, ENTRAIDE SUPPORT POUR LES PERSONNES ATTEINTES DE FIBROMYALGIE","APE",46.350433,-72.545267
1143442342,"COLLÈGE MARIE-DE-L'INCARNATION","725, RUE HART","TROIS-RIVIÈRES (QUÉBEC)",NA,"G9A4R9","ENSEIGNEMENT, ÉDUCATION","APE",46.346344,-72.537946
1143614858,"SYNDICAT DES PRODUCTEURS DE BOIS DU CENTRE-DU-QUÉBEC","2410 rue de l'Industrie","Trois-Rivières (Québec)",NA,"G8Z4R5","MISE EN MARCHÉ DE PRODUITS FORESTIERS - AMÉNAGEMENT FORESTIER","APE",46.332979,-72.583558
1143580109,"GRAND SEMINAIRE DE TROIS- RIVIÈRES","362, RUE BONAVENTURE, C.P. 879","TROIS-RIVIÈRES (QUÉBEC)",NA,"G9A5J9","FORMATION DES FUTURS PRÊTRES","APE",46.344254,-72.542557
1143608959,"Les Étoiles Filantes de St-Tite","425 boul. Saint-Joseph","Saint-Tite (Québec)",NA,"G0X3H0","PROMOUVOIR, ENSEIGNER, DÉVELOPPER LE PATINAGE DE VITESSE","APE",46.730752,-72.560561
1143558329,"LE FESTIVOIX DE TROIS-RIVIÈRES","800 RUE du Fleuve","CP 1316","Trois-Rivières (Québec)","G9A5L2","Le FestiVoix a pour mission d'organiser un festival estival de musique et de promouvoir la voix sous toutes ses formes.","APE",46.342423,-72.536811
1143558717,"LA CHAMBRE DE COMMERCE ET D'INDUSTRIES DE TROIS-RIVIÈRES","400-1350 rue Royale","Trois-Rivières (Québec)",NA,"G9A4J4","REGROUPEMENT","APE",46.339595,-72.545861
1143533587,"L'EVEQUE CATHOLIQUE ROMAIN DE TROIS-RIVIERES","362, RUE BONAVENTURE CP 879","TROIS-RIVIÈRES QC",NA,"G9A5J9","MAINTIEN DÉVELOPPEMENT RELIG. CATH. ROM. ÉDUCATION FOI & OEUVRES CARITATIVE","APE",46.344254,-72.542557
1143533967,"CAISSE D'ENTRAIDE DES PRETRES DU DIOCESE DE TROIS-RIVIERES","362, RUE BONAVENTURE CP 879","TROIS-RIVIÈRES QC",NA,"G9A5J9","AIDER PRÊTRES DANS BESOIN, SUIVANT CERTAINES NORMES PRINCIPES DE SOLIDARITÉ","APE",46.344254,-72.542557
1143534213,"SOCIETE ECCLESIASTIQUE SAINT-THOMAS DU DIOCESE DE TROIS-RIVIERES","362, RUE BONAVENTURE CP 879","TROIS-RIVIÈRES QC",NA,"G9A5J9","FONDS DE PENSION DES PRETRES DU DIOCÈSE DE TROIS-RIVIÈRES","APE",46.344254,-72.542557
1143570753,"GARDE ST-NARCISSE INC.","241 rue Principale","Saint-Narcisse (Québec)",NA,"G0X2Y0","GARDES PAROISSIALES","APE",46.564357,-72.46816
1143539626,"TRANSPORT ADAPTÉ DU COMTÉ DE MASKINONGÉ INC.","264 AV. Saint-Laurent","CP 82","Louiseville (Québec)","J5V2L6","TRANSPORT DE PERSONNES HANDICAPÉES","APE",46.255859,-72.945343
1143541051,"REGROUPEMENT DES PERSONNES SOURDES DE LA MAURICIE","4307 rue Notre-Dame O","Trois-Rivières (Québec)",NA,"G9A4Z4","-","APE",46.321816,-72.560524
1143530476,"LE CLUB DE CHASSE ET DE PÊCHE CICONCINE, INC.","7065 rue Claude-David","Trois-Rivières (Québec)",NA,"G9C0A9","PÊCHE CHASSE","APE",46.356313,-72.627968
1143543016,"PLONGEON TROIS-RIVIÈRES","2920 place Richelieu","Shawinigan (Québec)",NA,"G9P2B4","PROMOUVOIR FAVORISER DÉVELOPPEMENT DU PLONGEON. ORGANISER DES ÉVÈNEMENTS...","APE",46.513183,-72.745142
1143555754,"LES OEUVRES DU LAC-EN-COEUR","858 rue Laviolette","Trois-Rivières (Québec)",NA,"G9A5J1","AIDER LES JEUNES ET FAMILLES EN DIFFICULTÉS FINANCIÈRES","APE",46.349071,-72.544762
1143682004,"La Fabrique de la paroisse de Notre-Dame-de-l'Alliance","11900 rue Notre-Dame O","Trois-Rivières (Québec)",NA,"G9B6W8","SOUTIEN L'EXERCICE RELIGION CATHOLIQUE ROMAINE MAINTIEN DES ACTES DU CULTE","APE",46.287917,-72.687735
1143682715,"FONDATION FOYER MONSEIGNEUR PAQUIN INC.","580 rue du Couvent","Saint-Tite (Québec)",NA,"G0X3H0","FONDATION","APE",46.727504,-72.560486
1143683234,"LES RÉSIDENCES POPULAIRES DES CHENAUX","1160 terr. Turcotte","Trois-Rivières (Québec)",NA,"G9A5C6","CENTRE D'HÉBERGEMENT","APE",46.342267,-72.537686
1143684323,"LA CORPORATION EPISCOPALE CATHOLIQUE ROMAINE DE TROIS-RIVIERES","362, BONAVENTURE CP 879","TROIS-RIVIÈRES QC",NA,"G9A5J9","MAINTIEN ET DÉVEL. DE LA RELI.CATHO. ROM. EDUCA. DE LA FOI ET OEUVRES CAR.","APE",46.344254,-72.542557
1143707462,"ASSOCIATION DU HOCKEY MINEUR DE TROIS-RIVIÈRES INC.","1740 AV. Gilles-Villeneuve","Trois-Rivières (Québec)",NA,"G8Y7B6","JOUTES HOCHEY MINEUR 8 - 17 ANS. / ANIMATION DE PROGRAMMES HOCHEY 4 - 9 ANS","APE",46.34741,-72.559051
1143698455,"L'ASSOCIATION MOTOTOURISTE LAROCHELLE INC.","1036 place Toupin-Montplaisir","Saint-Maurice (Québec)",NA,"G0X2X0","RANDONNÉE DE MOTOS","APE",46.46859,-72.53158
1143653302,"CIMETIÈRE CATHOLIQUE ST-LOUIS DE GRAND'MÈRE","499 av. de Grand-Mère","Shawinigan (Québec)",NA,"G9T2H3","INHUMATION DES CORPS OU DES CENDRES","APE",46.615679,-72.689679
1143654060,"SYNDICAT CANADIEN DE LA FONCTION PUBLIQUE, SECTION LOCALE 2661","3351 boul. des Forges","Trois-Rivières (Québec)",NA,"G8Z4M3","SYNDICAT","APE",46.348038,-72.57778
1143654722,"CENTRE DES FEMMES L'HÉRITAGE","158 av. Dalcourt","Louiseville (Québec)",NA,"J5V1A5","-","APE",46.261827,-72.944073
1143762202,"LE SYNDICAT U.P.A. HAUTE-MAURICIE","230 rue Vachon","Trois-Rivières (Québec)",NA,"G8T8Y2","SYNDICALISME AGRICOLE","APE",46.374435,-72.551127
1143774868,"PARENTS-SECOURS DU QUÉBEC INC.","203-17 rue Fusey","Trois-Rivières (Québec)",NA,"G8T2T4","FOURNIR SOUTIEN BÉNÉVOLES-FOURNIR ENFANTS & AINÉS, REFUGES SÉCURITAIRES","APE",46.365687,-72.526862
1143788199,"DOMAINE ST-BERNARD","1680 rang Sacacomie","Saint-Alexis-des-Monts (Québec)",NA,"J0K1V0","POURVOYEUR DE CHASSE & PÊCHE","APE",46.50978,-73.208143
1143791839,"Club Quad Mékinac (2011) inc","194 rue des Pins","Lac-aux-Sables (Québec)",NA,"G0X1M0","RANDONNÉES EN VTT SUR LES SENTIERS SÉCURITÉ DANS LA CONDUITE DE VTT","APE",46.862556,-72.395372
1143768712,"L'ASSOCIATION DES RESIDENTS DU LAC A L'OURS INC.","131 rue Georgieff","La Tuque (Québec)",NA,"G9X4A7","COLLECTER LES MEMBRES ENTRETIEN DU CHEMIN","APE",47.454353,-72.776591
1143794130,"FEDERATION DE L'UPA DE LA MAURICIE","230 rue Vachon","Trois-Rivières (Québec)",NA,"G8T8Y2","SYNDICALISME AGRICOLE","APE",46.374435,-72.551127
1143795889,"ASSOCIATION DES CARDIAQUES DE LA MAURICIE INC.","3920 RUE Louis Pinard","Trois-Rivières (Québec)",NA,"G8Y4L9","SANTÉ CARDIOVASCULAIRE: SENSIBILISATION, PRÉVENTION, SOUTIEN, RÉADAPTATION ET SUIVI AUPRÈS DES PERSONNES ATTEINTES DE MALADIES CARDIOVASCULAIRES ET ASSISTER LES PERSONNES PRÉSENTANT DES FACTEURS DE RISQUE.","APE",46.349729,-72.59089
1143728435,"L'ASSOCIATION RECREATIVE STE-MARGUERITE INC.","5005 BOUL. Jean XXIII","CP 20033","Trois-Rivières (Québec)","G8Z4T9","ASSOCIATION DE LOISIR SANS BUT LUCRATIF POUR LE QUARTIER STE-MARGUERITE","APE",46.338432,-72.586936
1143741099,"LE SYNDICAT DE L'U.P.A. DES CHENAUX","230 rue Vachon","Trois-Rivières (Québec)",NA,"G8T8Y2","SYNDICALISME AGRICOLE","APE",46.374435,-72.551127
1143724046,"CLUB DE LA LIGNE","731 rue Kitchener","La Tuque (Québec)",NA,"G9X2L7","CLUB DE CHASSE ET PÊCHE","APE",47.433727,-72.777992
1143712090,"Le Périscope, Association des familles et des proches des personnes atteintes de maladie mentale du Centre de la Mauricie, Secteur Mékinac et du Secteur Haut-Saint-Maurice (AFPPAMM)","1671 av. de Grand-Mère","Shawinigan (Québec)",NA,"G9T2K2","ENTRAIDE ET SUPPORT AUX PARENTS AMIS EN SANTÉ MENTALE/INF. MALAD. MENTALES","APE",46.605586,-72.704854
1143725266,"INSTITUT VOLUNTAS DEI","7385 boul. Parent","Trois-Rivières (Québec)",NA,"G9C0M5","RELIGIEUSES MISSIONNAIRES","APE",46.363185,-72.625741
1143712736,"CLUB DE GOLF TAWACHICHE","660 ch. Saint-Charles","Lac-aux-Sables (Québec)",NA,"G0X1M0","EXPLOITATION D'UN CLUB DE GOLF","APE",46.855205,-72.447788
1143726298,"Comiqu'Art de Trois-Rivières","100 rue de la Mairie","Trois-Rivières (Québec)",NA,"G8W1S1","FESTIVAL ÉTÉ","APE",46.42268,-72.598167
1143868017,"LES SERVICES DE GARDE GRIBOUILLIS","700 rue Notre-Dame S","Louiseville (Québec)",NA,"J5V1Y9","FOURNIR DES SERVICES DE GARDE EN INSTALLATION COORDONNER DES SERVICES DE GARDE EN MILIEU FAMILIAL","APE",46.246842,-72.930387
1143880780,"L'OFFICE DIOCESAIN DE PASTORALE DE TROIS RIVIERES","362 RUE Bonaventure","CP 879","Trois-Rivières (Québec)","G9A5J9","ANIMATION PASTORALE","APE",46.344254,-72.542557
1143893536,"LE CLUB OPTIMISTE DE YAMACHICHE INC.","572, STE-ANNE","YAMACHICHE (QUÉBEC)",NA,"G0X3L0","AIDE JEUNESSE (ACTIVITÉS) AIDE COMMUNAUTÉ (ACTIVITÉS POUR TOUS)","APE",46.281561,-72.830298
1143859586,"CLUB DE L'AGE D'OR DE NOTRE-DAME-DES-ANGES","1329 rue Principale","Notre-Dame-de-Montauban (Québec)",NA,"G0X1W0","RENCONTRES ET ACTIVITÉS POUR PERSONNES DU TROISIÈME ÂGE","APE",46.837652,-72.327754
1143873678,"AU GRENIER DU SPORT DE GRAND-MÈRE","1580 10e Avenue","Shawinigan (Québec)",NA,"G9T1V4","ORGANISER DES SOIRÉES HOMMAGES AUX SPORTIFS DE LA RÉGION. EXPOSER, AMASS... TOURNOI DE GOLF POUR SA FONDATION-""FONDATION AU GRENIER DU SPORT"" REMISE DE","APE",46.60829,-72.70817
1143874817,"UNIVERSITÉ DU QUÉBEC À TROIS-RIVIÈRES","3351 BOUL. des Forges","CP 500","Trois-Rivières (Québec)","G9A5H7","INSTITUTION D'ENSEIGNEMENT","APE",46.348038,-72.57778
1143864149,"CLUB LIONS LA TUQUE INC.","633B rue Saint-Louis","La Tuque (Québec)",NA,"G9X2X8","CLUB DE SERVICE","APE",47.436773,-72.783052
1143876879,"SOCIÉTÉ SAINT-JEAN-BAPTISTE LOCALE LES PATRIOTES","9262 av. de la Mission","Shawinigan (Québec)",NA,"G9N5N1","ACTIVITÉS CULTURELLES ET SOCIALES, FÊTE NATIONALE","APE",46.587269,-72.704887
1143853563,"REVUE FRANCOPHONE DE LA DÉFICIENCE INTELLECTUELLE","6141 rue des Merles","Trois-Rivières (Québec)",NA,"G9B6G3","ÉDITION D'UNE REVUE SPÉCIALISÉE EN DÉFICIENCE INTELLECTUELLE","APE",46.311923,-72.649577
1143854504,"INSTITUT SECONDAIRE KERANNA (1992) INC.","6205 boul. des Chenaux","Trois-Rivières (Québec)",NA,"G8Y6Z1","MAISON D'ENSEIGNEMENT (NIVEAU SECONDAIRE)","APE",46.358473,-72.604883
1143866250,"LES ÉLEVEURS DE PORCS DE LA MAURICIE","230 rue Vachon","Trois-Rivières (Québec)",NA,"G8T8Y2","SYNDICALISME AGRICOLE","APE",46.374435,-72.551127
1143855246,"CLUB AGE D'OR ST-MICHEL- DES-FORGES","10215 boul. des Forges","Trois-Rivières (Québec)",NA,"G9C1B2","LOISIRS ET DIVERTISSEMENTS POUR LES PERSONNES DE 50 ANS ET PLUS","APE",46.39349,-72.662056
1143820232,"CLUB DE SKI DE FOND LA TUQUE ROUGE INC.","61 RUE Marie-Rollet","CP 1","La Tuque (Québec)","G9X4C6","CLUB DE SKI DE FOND","APE",47.422095,-72.790602
1143844943,"CORPORATION DE L'AGE D'OR DE ST-ADELPHE","1-150 rue Baillargeon","Saint-Adelphe (Québec)",NA,"G0X2G0","SOUPER OCCASIONNEL, PÉTANQUE, CARTES, FERS, DART","APE",46.735423,-72.430488
1143832690,"FESTIVAL DES SUCRES DE SAINT-PROSPER INC.","371 RUE De L'Église","CP 110","Saint-Prosper-de-Champlain (Québec)","G0X3A0","GALA MINI-STAR CONCOURS DE SCIAGE","APE",46.614458,-72.294477
1143810241,"GROUPE ""VOIX DE FEMMES ST-MATHIEU-DU-PARC""","1210 ch. Principal","Saint-Mathieu-du-Parc (Québec)",NA,"G0X1N0","ACTIVITÉS SOCIO-CULTURELLES ET INFORMELLES","APE",46.575944,-72.905984
1143810308,"CLUB DU-CAR-FOUR INC.","330 rue Normand","Trois-Rivières (Québec)",NA,"G8T2J1","CLUB SPORTIF-ENDROIT DE PCHE VILLÉGIATURE","APE",46.369439,-72.545634
1143822220,"FONDATION DES AMIS DU SÉMINAIRE DES TROIS RIVIÈRES","858 rue Laviolette","Trois-Rivières (Québec)",NA,"G9A5J1","AIDE À LA JEUNESSE/ATTRIBUTION DE BOURSES/AMÉLIORATION DES SERVICES PÉD.ETC","APE",46.349071,-72.544762
1143822824,"CLUB MULTIVOILE 4 SAISONS","12751 RUE NOTRE-DAME O","TROIS-RIVIERES (Québec)",NA,"G9B7Y6","CLUB DE VOILE, CAMP DE VACANCES","APE",46.292835,-72.712275
1143836238,"Producteurs de grains de la Mauricie","230 rue Vachon","Trois-Rivières (Québec)",NA,"G8T8Y2","Syndicalisme agricole","APE",46.374435,-72.551127
1143813385,"CENTRE LANDRY (1980) INC.","1954 rue Saint-François-d'Assise","Trois-Rivières (Québec)",NA,"G9A1N5","CENTRE COMMUNAUTAIRE DE LOISIR (ANIMATION/ORGANISATION) POUR LA FAMILLE","APE",46.357316,-72.551635
1143836485,"LA FABRIQUE DE LA PAROISSE DE SAINT-LEON-LE-GRAND","19 PLACE de l'Eglise","CP 186","Saint-Léon-Le-Grand (Québec)","G0J2W0","SOUTIEN A L'EXERCICE DE LA RELIGION CATH. ROMAINE- MAINTIEN DES ACTE CULTE","APE",48.380139,-67.504447
1143836865,"REGROUPEMENT DES ORGANISMES D'ÉDUCATION POPULAIRE AUTONOME DE LA MAURICIE","25-1322 rue Sainte-Julie","Trois-Rivières (Québec)",NA,"G9A1Y6","ÉDUCATION POPULAIRE AUTONOME LUTTES SOCIALES ET DÉFENSE COLLECTIVE DES DROITS","APE",46.349281,-72.54774
1143815091,"TABLE RÉGIONALE DES ORGANISMES COMMUNAUTAIRES (TROC) OEUVRANT DANS LE DOMAINE DE LA SANTÉ ET DES SERVICES SOCIAUX CENTRE-DU-QUÉBEC ET MAURICIE","300-1060 rue Saint-François-Xavier","Trois-Rivières (Québec)",NA,"G9A1R8","CONCERTATION DES ORGANISMES COMMUNAUTAIRES(RÉG 4)-REPRÉSENTATION DES ORGA.","APE",46.350433,-72.545267
1143827039,"CLUB DE PATINAGE ARTISTIQUE LOUISEVILLE","360 av. du Parc","Louiseville (Québec)",NA,"J5V2R1","CLUB DE PATINAGE ARTISTIQUE","APE",46.253028,-72.947571
1143806322,"CLUB INGALL INC.","301 rue Rocheleau","Hérouxville (Québec)",NA,"G0X1J0","PÊCHE","APE",46.675295,-72.620444
1143830611,"L'ACCUEIL FÉMININ INC.","1852 rue J.-A.-Mongrain","Trois-Rivières (Québec)",NA,"G8Y2C1","SOUPERS RÉCRÉATIFS ET CULTURELS","APE",46.360078,-72.598305
1143830926,"SOCCER MINEUR MIXTE REGION DE LOUISEVILLE","360 AV. du Parc","Louiseville (Québec)",NA,"J5V1J6","PRENDRE EN CHARGE L'ORGANISATION ET LE DÉVELOPPEMENT DU SOCCER LOUISEVILLE","APE",46.253028,-72.947571
1143979657,"CLUB DE NATATION MEGOPHIAS DU GRAND TROIS-RIVIÈRES INC.","3351 boul. des Forges","Trois-Rivières (Québec)",NA,"G8Z4M3","ÉCOLE DE NATATION MÉGOPHIAS / CLUB COMPÉTITION DE NATATION MÉGOPHIAS","APE",46.348038,-72.57778
1143974658,"CERCLE DE L'ÂGE D'OR SAINTE-BERNADETTE","300 rue Chapleau","Trois-Rivières (Québec)",NA,"G8W1Z9","ACTIV. SOCIALES (DANSE, VOYAGES, SORTIES) ACTIV. DE LOISIR (BINGO, JEUX) SOUPERS MENSUELS","APE",46.378135,-72.5573
1143976240,"MOUVEMENT VERT MAURICIE INC.","2235 ch. Principal","Saint-Mathieu-du-Parc (Québec)",NA,"G0X1N0","ÉDUCATION POPULAIRE ET COLLECTIVE CONCERNANT L'ENVIRONNEMENT RECHERCHE ET GESTION DE L'ENVIRONNEMENT","APE",46.581377,-72.933537
1143955764,"CLUB DE TIR LES SEIGNEURS","4240 rue Monseigneur-De Laval","Trois-Rivières (Québec)",NA,"G8Y1M7","CLUB DE TIR","APE",46.360381,-72.584055
1143902378,"FONDS COMMUNAUTAIRES DES CHENAUX","44 rang de la Rivière-à-Veillet","Sainte-Geneviève-de-Batiscan (Québec)",NA,"G0X2R0","ÉDUCATION À LA CONSOMMATION","APE",46.564545,-72.341041
1143938570,"LES HABITATIONS LAFRANCE","270, ST-PIERRE CP 240","ST-LÉON-LE-GRAND (QUÉBEC)",NA,"G0J2W0","IMMEUBLES À LOGEMENTS","APE",48.380139,-67.504447
1143927649,"SYNDICAT CANADIEN DE LA FONCTION PUBLIQUE, SECTION LOCALE 2578","1470 rue Notre-Dame","Saint-Maurice (Québec)",NA,"G0X2X0","ÉTUDE, DÉFENSE ET DÉV. DES INTÉRÊTS ÉCONOMIQUES SOCIAUX ET MORAUX DE MEMBRE","APE",46.468937,-72.531834
1143918267,"SOCIÉTÉ SAINT-JEAN-BAPTISTE LOCALE DE ST-NARCISSE","270 rue des Lilas","Saint-Narcisse (Québec)",NA,"G0X2Y0","ORGANISATION FÊTE NATIONALE, ACTIVITÉS CULTURELLES, ÉDUCATIVES, SOCIALES","APE",46.569697,-72.473649
1143898030,"FONDATION ROTARY DE TROIS-RIVIERES INC.","25 rue Des Ormeaux","Trois-Rivières (Québec)",NA,"G8T7V5","ORGANISME DE CHARITÉ","APE",46.380528,-72.562464
1143919661,"Société d'histoire de Cap-de-la-Madeleine","170,rue Saint-Irénée","Trois-Rivières (Québec)","Canada","G8T7C5","ORGANISATION CIVIQUE ET AMICALE","APE",46.365706,-72.523695
1143920289,"PRESSES UNIVERSITAIRES DE TROIS-RIVIERES","2884 rue Des Groseilliers","Trois-Rivières (Québec)",NA,"G8Z2C4","-","APE",46.345229,-72.569773
1143921154,"FONDATION DU CENTRE DE SANTE DES FEMMES DE LA MAURICIE","889 rue du Haut-Boc","Trois-Rivières (Québec)",NA,"G9A4W7","ORGANISME COMMUNAUTAIRE - SANTÉ ET SERVICES SOCIAUX (OCSSS)","APE",46.346259,-72.541092
1144050763,"CLUB DE L'AGE D'OR DE CHAMPLAIN","961 rue Notre-Dame","Champlain (Québec)",NA,"G0X1C0","CARTES, BINGO / JEUX DE SAC DE SABLE, PÉTANGUE","APE",46.441918,-72.344733
1144055325,"LE CLUB DE L'AGE D'OR DE STE-THECLE INC.","214-301 rue Saint-Jacques","Sainte-Thècle (Québec)",NA,"G0X3G0","JEUX SAC DE SABLE,  PÉTANQUE-ATOUT,  PÉTANQUE,  CARTES","APE",46.818583,-72.504294
1144011872,"ASSOCIATION DE CHASSE ET PÊCHE FRÉMONT INC.","4520 boul. Des Récollets","CP 22007 Le Carrefour","Trois-Rivières (Québec)","G9A4N2","GESTION D'UN TERRITOIRE DE CHASSE ET PÊCHE","APE",46.325429,-72.566693
1144013209,"CLUB DU LAC NIPON INC.","10175 boul. Saint-Jean","Trois-Rivières (Québec)",NA,"G9A5E1","VILLÉGIATURE, CHASSE ET PÊCHE","APE",46.38187,-72.682261
1144013498,"ASSOCIATION POUR LA PROTECTION DES LACS GOULET, BRÛLÉ, MAGNAN ET DES AMOUREUX INC.","220 ch. du Lac-Brûlé","Saint-Mathieu-du-Parc (Québec)",NA,"G0X1N0","INFORMATION & ÉDUCATION POUR PROTECTION DES LACS","APE",46.599419,-72.945528
1144014975,"LE NOEL DU PAUVRE COEUR DU QUEBEC INC.","120-505 RUE des Forges","Trois-Rivières (Québec)",NA,"G9A2H6","ORGANISME DE BIENFAISANCE","APE",46.342492,-72.545485
1144005551,"LES LOISIRS CENTRE-VILLE DE SHAWINIGAN INC.","253 3e rue de la Pointe","Shawinigan (Québec)",NA,"G9N1H5","ORGANISER DES LOISIRS POUR PERSONNES CENTRE-VILLE / ENCOURAGER, AIDER ET ..","APE",46.539249,-72.745456
1143997121,"L'OEUVRE DES TERRAINS DE JEUX DE CHARETTE INCORPORE","390 rue Saint-Édouard","Charette (Québec)",NA,"G0X1E0","LOISIRS","APE",46.444649,-72.920963
1144008357,"CLUB DE TIR A LA VOLÉE DE LAC-A-LA-TORTUE","651 rue Rosaire-Mongrain","Shawinigan (Québec)",NA,"G0X1L0","TIR AU PIGEON D'ARGILE","APE",46.622442,-72.628976
1144008639,"JOURNAL LE STÉPHANOIS INC.","1260 RUE St-Alphonse","CP 282","St-Étienne-des-Grès (Québec)","G0X2P0","PUBLICATION MENSUELLE JOURNAL","APE",46.441862,-72.771299
1144008787,"LES AUXILIAIRES BENEVOLES DU CENTRE D'ACCUEIL DE LOUISEVILLE INC.","450 2e Rue","Louiseville (Québec)",NA,"J5V1V3","ORGANISER DES ACTIVITÉS POUR LES USAGERS DU CA LOUISEVILLE","APE",46.255306,-72.932118
1143999374,"CENTRE D'ÉDUCATION POPULAIRE DE POINTE-DU-LAC","490 Grande Allée","Trois-Rivières (Québec)",NA,"G9B7S3","ÉDUCATION POPULAIRE  -  ALPHABÉTISATION POPULAIRE","APE",46.28994,-72.671228
1144010635,"ASSOCIATION GÉNÉRALE DES ÉTUDIANTS DU C.E.G.E.P. DE TROIS-RIVIÈRES INC.","3175 boul. Laviolette","Trois-Rivières (Québec)",NA,"G8Z1E9","SYNDICAT ÉTUDIANT, SERVICE D'ACTIVITÉ DIVERSES AUPRÈS DES ÉTUDIANTS","APE",46.358501,-72.568898
1144155133,"H.S.I. HANDICAPS SOLEIL INC.","726 4e rue de la Pointe","Shawinigan (Québec)",NA,"G9N1H2","ORGANISER ACTIVITÉS (LOISIRS) POUR HANDICAPÉS PHYSIQUES OU SENSORIELS... DÉFENDRE DROITS ET INTÉRÊTS HANDICAPÉS - ORGANISER SERVICES MEMBRES","APE",46.539971,-72.750764
1144144590,"LOISIRS JEUNESSE DU CAP-DE-LA-MADELEINE INC.","55 rue Mercier","Trois-Rivières (Québec)",NA,"G8T5R3","CENTRE DE LOISIRS","APE",46.363388,-72.507479
1144137925,"SERVICE DES LOISIRS DE MASKINONGÉ INC.","135A rue Saint-Charles","Maskinongé (Québec)",NA,"J0K1N0","UN SEUL SECTEUR D'ACTIVITÉS, LES LOISIRS","APE",46.227606,-73.018657
1144138279,"APEVAH des Chenaux","44 rang de la Rivière-à-Veillet","Sainte-Geneviève-de-Batiscan (Québec)",NA,"G0X2R0","REGROUPER LES PERSONNES HANDICAPÉES DU TERRITOIRE DES CHENAUX","APE",46.564545,-72.341041
1144138667,"SOCIÉTÉ D'HISTOIRE DE SAINT-LUC-DE-VINCENNES","660 rue Principale","Saint-Luc-de-Vincennes (Québec)",NA,"G0X3K0","REGROUP.PERSONNES INTÉRESSÉES:HISTOIRE,PATRIMOINE,INVENT.RÉGISTRES NAIS.ETC","APE",46.497234,-72.420511
1144118891,"INSTITUT NATIONAL AUTOCHTONE","1595 rue De La Girardière","Trois-Rivières (Québec)",NA,"G8Y2C4","GROUPES ETNIQUES","APE",46.352503,-72.588598
1144143311,"HABITATION POPULAIRE DE LA TUQUE","492 rue Élisabeth","La Tuque (Québec)",NA,"G9X2B3","EXPLOITATION IMMEUBLES LOGEMENTS POUR FAMILLES ET INDIVIDUS À FAIBLE REVENU","APE",47.441423,-72.773128
1144144442,"Le Syndicat de l'U.P.A. de Maskinongé","230 rue Vachon","Trois-Rivières (Québec)",NA,"G8T8Y2","GROUPER PRODUCTEURS POUR ÉTUDIER PROBLÈMES PROPOSER SOLUTIONS DÉFENDRE INT.","APE",46.374435,-72.551127
1144113868,"ORGANISATION BASEBALL MINEUR LOUISEVILLE","360 av. du Parc","Louiseville (Québec)",NA,"J5V2R1","ORG. DU BASEBALL POUR JEUNES 6 À 20 ANS.OPÉR.LE REST. DU STADE POUR FONDS.","APE",46.253028,-72.947571
1144079291,"MAISON DE JEUNES LE TRANSIT","75 rue Thuney","Trois-Rivières (Québec)",NA,"G8T2N7","Maison de jeunes: Tenir un lieu de rencontre animé pour les jeunes de 12 à 17 ans, qui au contact d'adultes significatifs, pourront devenir des citoyens(ennes) critiques, actifs(ves) et responsables.","APE",46.3693,-72.532775
1144089647,"CORPORATION POUR LE DÉVELOPPEMENT DE L'ÎLE ST-QUENTIN","10 PL DE LA ROSALIE","CP 956","TROIS-RIVIÈRES (Québec)","G9A5K2","PARC PLEIN AIR, ACTIVITÉS RÉCRÉATIVES LIBRES ET ANIMATION","APE",46.352049,-72.521162
1144115681,"ASSOCIATION DES MARCHANDS DES GALERIES DU CAP","300 rue Barkoff","Trois-Rivières (Québec)",NA,"G8T2A3","ASSOCIATION D'HOMMES ET FEMMES D'AFFAIRES, SANS BUT LUCRATIF","APE",46.372847,-72.558516
1144109734,"CLUB OPTIMISTE LOUISEVILLE INC.","530 av. Royale","Louiseville (Québec)",NA,"J5V1W5","-","APE",46.266169,-72.934841
1144109957,"SOCIETE DE GEOGRAPHIE DE LA MAURICIE","3600 boul. Laviolette","Trois-Rivières (Québec)",NA,"G8Z1G2","FAIRE CONNAÎTRE LA GÉOGRAPHIE PAR DES SÉANCES D'INFO / SUSCITER DES ACT.ETC","APE",46.360562,-72.568993
1144076321,"TRANSPORTEURS EN VRAC DU TROIS-RIVIÈRES MÉTROPOLITAIN INC.","120-7175 RUE Marion","Trois-Rivières (Québec)",NA,"G9A5Z9","Courtier en transport en vrac","APE",46.325362,-72.580351
1144210938,"MAISON DES JEUNES DE NOTRE- DAME-DE-MONTAUBAN L'INDEX","515 av. des Loisirs","Notre-Dame-de-Montauban (Québec)",NA,"G0X1W0","DIVERSTISSEMENT POUR JEUNES DE 11 À 17 ANS, PARTICIPATION À LA VIE SOCIALE","APE",46.876487,-72.307859
1144212025,"SYNDICAT DES PROFESSEURS ET DES PROFESSEURES DE L'UNIVERSITE DU QUEBEC A TROIS-RIVIERES","3351, BOUL DES FORGES CP 500","TROIS-RIVIÈRES (QUÉBEC)",NA,"G9A5H7","SYNDICAT DES PROFESSEURS","APE",46.348038,-72.57778
